FMT, 128, 89, FMT, BBnNZ, Type,Length,Name,Format,Columns
FMT, 141, 29, AHR2, QccCfLL, TimeUS,Roll,Pitch,Yaw,Alt,Lat,Lng
FMT, 163, 27, ATT, QccccCCCC, TimeUS,DesRoll,Roll,DesPitch,Pitch,DesYaw,Yaw,ErrRP,ErrYaw
FMT, 139, 33, BARO, QffcfIf, TimeUS,Alt,Press,Temp,CRt,SMS,Offset
FMT, 254, 31, CTRL, Qfffff, TimeUS,RMSRollP,RMSRollD,RMSPitchP,RMSPitchD,RMSYaw
FMT, 4, 51, CTUN, Qffffffeccfhh, TimeUS,ThI,ABst,ThO,ThH,DAlt,Alt,BAlt,DSAlt,SAlt,TAlt,DCRt,CRt
FMT, 164, 23, CURR, Qfff, TimeUS,Volt,Curr,CurrTot
FMT, 23, 16, DU32, QBI, TimeUS,Id,Value
FMT, 13, 12, EV, QB, TimeUS,Id
FMT, 193, 24, GPA, QCCCCBI, TimeUS,VDop,HAcc,VAcc,SAcc,VV,SMS
FMT, 130, 46, GPS, QBIHBcLLefffB, TimeUS,Status,GMS,GWk,NSats,HDop,Lat,Lng,Alt,Spd,GCrs,VZ,U
FMT, 34, 36, GUID, QBffffff, TimeUS,Type,pX,pY,pZ,vX,vY,vZ
FMT, 133, 49, IMU, QffffffIIfBB, TimeUS,GyrX,GyrY,GyrZ,AccX,AccY,AccZ,ErrG,ErrA,Temp,GyHlt,AcHlt
FMT, 138, 49, IMU2, QffffffIIfBB, TimeUS,GyrX,GyrY,GyrZ,AccX,AccY,AccZ,ErrG,ErrA,Temp,GyHlt,AcHlt
FMT, 166, 34, MAG, QhhhhhhhhhBI, TimeUS,MagX,MagY,MagZ,OfsX,OfsY,OfsZ,MOfsX,MOfsY,MOfsZ,Health,S
FMT, 167, 34, MAG2, QhhhhhhhhhBI, TimeUS,MagX,MagY,MagZ,OfsX,OfsY,OfsZ,MOfsX,MOfsY,MOfsZ,Health,S
FMT, 169, 14, MODE, QMBB, TimeUS,Mode,ModeNum,Rsn
FMT, 30, 27, MOTB, Qffff, TimeUS,LiftMax,BatVolt,BatRes,ThLimit
FMT, 134, 75, MSG, QZ, TimeUS,Message
FMT, 198, 51, NKF1, QccCfffffffccc, TimeUS,Roll,Pitch,Yaw,VN,VE,VD,dPD,PN,PE,PD,GX,GY,GZ
FMT, 199, 35, NKF2, QbccccchhhhhhB, TimeUS,AZbias,GSX,GSY,GSZ,VWN,VWE,MN,ME,MD,MX,MY,MZ,MI
FMT, 200, 33, NKF3, Qcccccchhhcc, TimeUS,IVN,IVE,IVD,IPN,IPE,IPD,IMX,IMY,IMZ,IYAW,IVT
FMT, 201, 35, NKF4, QcccccfbbHBHHb, TimeUS,SV,SP,SH,SM,SVT,errRP,OFN,OFE,FS,TS,SS,GPS,PI
FMT, 202, 40, NKF5, QBhhhcccCCfff, TimeUS,NI,FIX,FIY,AFI,HAGL,offset,RI,rng,Herr,eAng,eVel,ePos
FMT, 203, 51, NKF6, QccCfffffffccc, TimeUS,Roll,Pitch,Yaw,VN,VE,VD,dPD,PN,PE,PD,GX,GY,GZ
FMT, 204, 35, NKF7, QbccccchhhhhhB, TimeUS,AZbias,GSX,GSY,GSZ,VWN,VWE,MN,ME,MD,MX,MY,MZ,MI
FMT, 205, 33, NKF8, Qcccccchhhcc, TimeUS,IVN,IVE,IVD,IPN,IPE,IPD,IMX,IMY,IMZ,IYAW,IVT
FMT, 206, 35, NKF9, QcccccfbbHBHHb, TimeUS,SV,SP,SH,SM,SVT,errRP,OFN,OFE,FS,TS,SS,GPS,PI
FMT, 5, 51, NTUN, Qffffffffff, TimeUS,DPosX,DPosY,PosX,PosY,DVelX,DVelY,VelX,VelY,DAccX,DAccY
FMT, 191, 24, ORGN, QBLLe, TimeUS,Type,Lat,Lng,Alt
FMT, 129, 31, PARM, QNf, TimeUS,Name,Value
FMT, 6, 28, PM, QHHIhBHI, TimeUS,NLon,NLoop,MaxT,PMT,I2CErr,INSErr,LogDrop
FMT, 180, 31, POS, QLLfff, TimeUS,Lat,Lng,Alt,RelHomeAlt,RelOriginAlt
FMT, 231, 59, RATE, Qffffffffffff, TimeUS,RDes,R,ROut,PDes,P,POut,YDes,Y,YOut,ADes,A,AOut
FMT, 135, 39, RCIN, QHHHHHHHHHHHHHH, TimeUS,C1,C2,C3,C4,C5,C6,C7,C8,C9,C10,C11,C12,C13,C14
FMT, 136, 39, RCOU, QHHHHHHHHHHHHHH, TimeUS,C1,C2,C3,C4,C5,C6,C7,C8,C9,C10,C11,C12,C13,C14
FMT, 142, 29, SIM, QccCfLL, TimeUS,Roll,Pitch,Yaw,Alt,Lat,Lng
FMT, 148, 34, TERR, QBLLHffHH, TimeUS,Status,Lat,Lng,Spacing,TerrH,CHeight,Pending,Loaded
FMT, 187, 35, VIBE, QfffIII, TimeUS,VibeX,VibeY,VibeZ,Clip0,Clip1,Clip2
MSG, 29526518, APM:Copter V3.5-dev (2d603c1c)
MSG, 29526518, New mission
MSG, 29526518, Frame: QUAD
MODE, 29526518, 4, 4, 2
ORGN, 29526518, 0, -35.363260799999999, 149.16523509999999, 584.09000000000003
ORGN, 29526518, 1, -35.363260799999999, 149.16523509999999, 584.09000000000003
MSG, 31189186, PreArm: Need 3D Fix
MSG, 37386706, PreArm: Need 3D Fix
MSG, 40108950, EKF2 IMU1 is using GPS
MSG, 40113948, EKF2 IMU0 is using GPS
MSG, 42916160, Arming motors
ORGN, 42916160, 0, -35.363260799999999, 149.16523509999999, 584.09000000000003
ORGN, 42916160, 1, -35.3632609, 149.16523520000001, 584.09000000000003
EV, 42916160, 10
MODE, 42916160, 4, 4, 2
IMU, 42921158, 0.00074153329499999996, 0.00062435539399999999, 0.00090292783000000003, 8.7503300199999996e-05, 0.0013252984500000001, -9.8056488000000002, 0, 0, 0, 1, 1
IMU2, 42921158, 0.00068801018599999998, 0.00076083897100000003, 0.00066156376899999996, 0.00063077255599999999, 0.00054417230399999997, -9.8042249699999999, 0, 0, 0, 1, 1
CURR, 42941150, 12.5879774, 0, 0
MAG, 42941150, 215, 73, -539, 5, 13, -18, 0, 0, 0, 1, 42940317
MAG2, 42941150, 215, 73, -539, 5, 13, -18, 0, 0, 0, 1, 42940317
BARO, 42941150, 0, 94502.781199999998, 26.010000000000002, 0, 42941, 0
CTUN, 42941150, 0, 0, 0, 0.36000001399999998, 0.029326880400000001, 0.000344121072, 0, 0, 0, 0, 0, 0
ATT, 42941150, 0.080000000000000002, 0.080000000000000002, 0.10000000000000001, 0.10000000000000001, 356.93000000000001, 356.94, 0, 0
NKF1, 42941150, 0.080000000000000002, 0.10000000000000001, 356.93000000000001, -0.021157277700000001, 0.022531019499999999, -0.00016607079299999999, 0, -0.013022543899999999, 0.013911875000000001, -0.000344121072, 0.02, 0.02, -0.40000000000000002
NKF2, 42941150, 0, 0, 0, 0, 0, 0, 227, 0, -539, 0, 0, 0, 0
NKF3, 42941150, -0.01, 0.01, 0, 0, 0, 0, 0, 0, 0, 4.0300000000000002, 0
NKF4, 42941150, 0, 0, 0, 0.040000000000000001, 0, 7.4504801900000006e-05, 0, 0, 0, 16, 9087, 0, 0
NKF5, 42941150, 0, 0, 0, 0, 0.050000000000000003, 0.040000000000000001, 0, 0.050000000000000003, 0.14999999999999999, 0.0039518549999999998, 0.00227560173, 0.0024159736899999999
NKF6, 42941150, 0.080000000000000002, 0.10000000000000001, 356.93000000000001, -0.020671790499999999, 0.0223981831, 0.000222822724, 0, -0.012840147099999999, 0.013840936099999999, -0.00015815897499999999, 0.01, 0.02, -0.40000000000000002
NKF7, 42941150, 0, 0, 0, 0, 0, 0, 227, 0, -539, 0, 0, 0, 0
NKF8, 42941150, -0.01, 0.01, 0, 0, 0, 0, 0, 0, 0, 4.0300000000000002, 0
NKF9, 42941150, 0, 0, 0, 0.040000000000000001, 0, 7.3316885399999995e-05, 0, 0, 0, 16, 9087, 0, 0
AHR2, 42941150, 0.12, 0.14000000000000001, 352.83999999999997, 584.089966, -35.363260799999999, 149.16523509999999
SIM, 42941150, 0, 0, 353, 584.09002699999996, -35.363260799999999, 149.16523509999999
POS, 42941150, -35.3632609, 149.16523520000001, 584.089966, 0.000344121072, 0.000344121072
RATE, 42941150, 0.016688536899999998, 0.016688536899999998, 0, 0.0123224463, 0.0123224463, 0, 0.44174861900000001, 0.44174861900000001, -1.4012984600000001e-45, 0, -0.044155120800000003, 0
MOTB, 42941150, 1, 1, 0, 1
RCIN, 42941150, 1500, 1500, 1000, 1500, 1800, 1000, 1000, 1800, 0, 0, 0, 0, 0, 0
RCOU, 42941150, 1000, 1000, 1000, 1000, 0, 0, 0, 0, 0, 0, 0, 0, 0, 0
NTUN, 42941150, -0.207037896, 0.22853013899999999, -1.30225444, 1.3911875499999999, 0, 0, -2.1157276600000001, 2.2531020599999998, -0.32969921800000002, 0.205374047
VIBE, 42941150, 0.0058358027599999997, 0.0055920593400000003, 0.0056458907200000004, 0, 0, 0
CTRL, 42941150, 2.6469779599999998e-22, 2.6469779599999998e-22, 2.6469779599999998e-22, 2.6469779599999998e-22, 2.6469779599999998e-22
IMU, 42961142, 0.00062570831500000004, 0.00071593670900000001, 0.00082794437199999998, -0.00047557961100000001, 0.0024975731500000002, -9.8043250999999998, 0, 0, 0, 1, 1
IMU2, 42961142, 0.00059767707700000003, 0.00082841428200000004, 0.00067558651800000004, -0.00040789029999999999, 0.00036549341200000003, -9.8077821699999994, 0, 0, 0, 1, 1
IMU, 43001126, 0.00071996852099999995, 0.00074172788300000002, 0.00079018168600000001, 0.00119088811, 0.0026448154799999998, -9.8070201899999994, 0, 0, 0, 1, 1
IMU2, 43001126, 0.000659144833, 0.00082379020799999995, 0.00077519594900000001, 0.00074423948499999996, -0.00023023398500000001, -9.8042593, 0, 0, 0, 1, 1
CURR, 43041110, 12.5879774, 0, 0
MAG, 43041110, 215, 73, -539, 5, 13, -18, 0, 0, 0, 1, 43040277
MAG2, 43041110, 215, 73, -539, 5, 13, -18, 0, 0, 0, 1, 43040277
BARO, 43041110, 0, 94502.781199999998, 26.010000000000002, 0, 43041, 0
CTUN, 43041110, 0, 0, 0, 0.36000001399999998, 0.029326880400000001, 0.00034211346100000001, 0, 0, 0, 0, 0, 0
ATT, 43041110, 0.080000000000000002, 0.080000000000000002, 0.10000000000000001, 0.10000000000000001, 356.93000000000001, 356.94, 0, 0
NKF1, 43041110, 0.080000000000000002, 0.10000000000000001, 356.93000000000001, -0.021533219100000001, 0.022993108299999999, -0.000129111373, 0, -0.0135925636, 0.014518391300000001, -0.00034211343200000002, 0.02, 0.02, -0.39000000000000001
NKF2, 43041110, 0, 0, 0, 0, 0, 0, 227, 0, -539, 0, 0, 0, 0
NKF3, 43041110, -0.01, 0.01, 0, 0, 0, 0, 0, 0, 0, 4.0199999999999996, 0
NKF4, 43041110, 0, 0, 0, 0.040000000000000001, 0, 7.9463170599999996e-05, 0, 0, 0, 16, 9087, 0, 0
NKF5, 43041110, 0, 0, 0, 0, 0.050000000000000003, 0.040000000000000001, 0, 0.050000000000000003, 0.14999999999999999, 0.0037818178499999999, 0.00070128776099999998, 0.00060862198000000004
NKF6, 43041110, 0.080000000000000002, 0.10000000000000001, 356.93000000000001, -0.021074995400000001, 0.022819224700000001, 0.00024921586700000001, 0, -0.0133982636, 0.014449221999999999, -0.00013456468900000001, 0.01, 0.02, -0.40000000000000002
NKF7, 43041110, 0, 0, 0, 0, 0, 0, 227, 0, -539, 0, 0, 0, 0
NKF8, 43041110, -0.01, 0.01, 0, 0, 0, 0, 0, 0, 0, 4.0199999999999996, 0
NKF9, 43041110, 0, 0, 0, 0.040000000000000001, 0, 7.7972174000000001e-05, 0, 0, 0, 16, 9087, 0, 0
AHR2, 43041110, 0.12, 0.14000000000000001, 352.83999999999997, 584.089966, -35.363260799999999, 149.16523509999999
SIM, 43041110, 0, 0, 353, 584.09002699999996, -35.363260799999999, 149.16523509999999
POS, 43041110, -35.3632609, 149.16523520000001, 584.089966, 0.00034211343200000002, 0.00034211343200000002
RATE, 43041110, 0.0242811702, 0.0242811702, 0, 0.013978674999999999, 0.013978674999999999, 0, 0.43370732699999998, 0.43370732699999998, -1.4012984600000001e-45, 0, -0.15954971300000001, 0
MOTB, 43041110, 1, 1, 0, 1
RCIN, 43041110, 1500, 1500, 1000, 1500, 1800, 1000, 1000, 1800, 0, 0, 0, 0, 0, 0
RCOU, 43041110, 1000, 1000, 1000, 1000, 0, 0, 0, 0, 0, 0, 0, 0, 0, 0
NTUN, 43041110, -0.207037896, 0.22853013899999999, -1.3592563900000001, 1.45183909, 0, 0, -2.1533219799999999, 2.2993109199999999, -0.32969921800000002, 0.205374047
VIBE, 43041110, 0.0059004272299999997, 0.0054901195700000002, 0.0056638098299999998, 0, 0, 0
CTRL, 43041110, 2.6469779599999998e-22, 2.6469779599999998e-22, 2.6469779599999998e-22, 2.6469779599999998e-22, 2.6469779599999998e-22
IMU, 43041110, 0.000790821796, 0.00066932465399999999, 0.00060236523900000002, -0.00049497094, 0.00147595536, -9.8040361399999991, 0, 0, 0, 1, 1
IMU2, 43041110, 0.000664949534, 0.00079415156500000001, 0.00077169685400000005, 0.0025154645600000002, 0.0019574016300000002, -9.8059463499999993, 0, 0, 0, 1, 1
GPS, 43081094, 6, 431248200, 1948, 10, 1.21, -35.363260799999999, 149.16523509999999, 584.09000000000003, 0, 0, 0, 1
GPA, 43081094, 2, 0.20000000000000001, 0.20000000000000001, 0.040000000000000001, 1, 43081
IMU, 43081094, 0.00069194525699999997, 0.00065704958999999996, 0.00068216258699999998, 0.000426061742, 0.00024442165199999998, -9.8057537099999994, 0, 0, 0, 1, 1
IMU2, 43081094, 0.000610992429, 0.00081600074199999996, 0.00067312910699999996, 0.00071567163100000005, 0.0026676068100000001, -9.8054418600000002, 0, 0, 0, 1, 1
IMU, 43121078, 0.00078821036699999996, 0.00078476197100000005, 0.00074338482200000001, 0.00201753108, -0.0010019091399999999, -9.80682659, 0, 0, 0, 1, 1
IMU2, 43121078, 0.00068398215799999999, 0.000668713008, 0.00088878802499999996, 0.00131498952, -0.00091451685900000002, -9.8061304099999997, 0, 0, 0, 1, 1
CURR, 43141070, 12.5879774, 0, 0
MAG, 43141070, 215, 73, -539, 5, 13, -18, 0, 0, 0, 1, 43140237
MAG2, 43141070, 215, 73, -539, 5, 13, -18, 0, 0, 0, 1, 43140237
BARO, 43141070, 0, 94502.781199999998, 26.010000000000002, 0, 43141, 0
CTUN, 43141070, 0, 0, 0, 0.36000001399999998, 0.029326880400000001, 0.00033876032099999998, 0, 0, 0, 0, 0, 0
ATT, 43141070, 0.080000000000000002, 0.080000000000000002, 0.10000000000000001, 0.10000000000000001, 356.93000000000001, 356.94, 0, 0
NKF1, 43141070, 0.080000000000000002, 0.10000000000000001, 356.93000000000001, -0.021925468, 0.0233735256, -0.000133309615, 0, -0.014208971500000001, 0.015176059699999999, -0.00033876032099999998, 0.02, 0.02, -0.39000000000000001
NKF2, 43141070, 0, 0, 0, 0, 0, 0, 227, 0, -539, 0, 0, 0, 0
NKF3, 43141070, -0.01, 0.01, 0, 0, 0, 0, 0, 0, 0, 4.0099999999999998, 0
NKF4, 43141070, 0, 0, 0, 0.040000000000000001, 0, 8.3672457499999996e-05, 0, 0, 0, 16, 9087, 0, 0
NKF5, 43141070, 0, 0, 0, 0, 0.050000000000000003, 0.040000000000000001, 0, 0.050000000000000003, 0.14999999999999999, 0.0042481482999999999, 0.0025021114900000002, 0.0028733534299999999
NKF6, 43141070, 0.080000000000000002, 0.10000000000000001, 356.93000000000001, -0.0215114746, 0.023278567900000002, 0.00020801568500000001, 0, -0.0140005732, 0.015108311500000001, -0.00011130085499999999, 0.01, 0.02, -0.39000000000000001
NKF7, 43141070, 0, 0, 0, 0, 0, 0, 227, 0, -539, 0, 0, 0, 0
NKF8, 43141070, -0.01, 0.01, 0, 0, 0, 0, 0, 0, 0, 4.0199999999999996, 0
NKF9, 43141070, 0, 0, 0, 0.040000000000000001, 0, 8.2181519200000001e-05, 0, 0, 0, 16, 9087, 0, 0
AHR2, 43141070, 0.12, 0.14000000000000001, 352.83999999999997, 584.089966, -35.363260799999999, 149.16523509999999
SIM, 43141070, 0, 0, 353, 584.09002699999996, -35.363260799999999, 149.16523509999999
POS, 43141070, -35.3632609, 149.16523520000001, 584.089966, 0.00033876032099999998, 0.00033876032099999998
RATE, 43141070, 0.017879441400000001, 0.017879441400000001, 0, 0.018424056500000001, 0.018424056500000001, 0, 0.43080994500000003, 0.43080994500000003, -1.4012984600000001e-45, 0, -0.119590759, 0
MOTB, 43141070, 1, 1, 0, 1
RCIN, 43141070, 1500, 1500, 1000, 1500, 1800, 1000, 1000, 1800, 0, 0, 0, 0, 0, 0
RCOU, 43141070, 1000, 1000, 1000, 1000, 0, 0, 0, 0, 0, 0, 0, 0, 0, 0
NTUN, 43141070, -0.207037896, 0.22853013899999999, -1.42089713, 1.5176060200000001, 0, 0, -2.1925468399999999, 2.3373525100000001, -0.32969921800000002, 0.205374047
VIBE, 43141070, 0.0053539560199999999, 0.0053280131, 0.0055722286900000001, 0, 0, 0
CTRL, 43141070, 2.6469779599999998e-22, 2.6469779599999998e-22, 2.6469779599999998e-22, 2.6469779599999998e-22, 2.6469779599999998e-22
IMU, 43161062, 0.00075905356799999999, 0.00086769647899999998, 0.00058031827200000002, 0.00109559135, 0.00049062818300000003, -9.8053188299999992, 0, 0, 0, 1, 1
IMU2, 43161062, 0.00055139121800000003, 0.00067748595000000002, 0.00063370680399999998, 0.00054294953599999995, 0.00074753980200000002, -9.8038549400000008, 0, 0, 0, 1, 1
IMU, 43201046, 0.00072072207700000005, 0.00068839849, 0.00058807909999999996, 0.00148181024, -0.00057446694700000005, -9.8066472999999998, 0, 0, 0, 1, 1
IMU2, 43201046, 0.000699732569, 0.00073354295499999998, 0.00055607949599999998, 0.000167678256, 0.00031696606299999998, -9.8064575200000004, 0, 0, 0, 1, 1
CURR, 43241030, 12.5879774, 0, 0
MAG, 43241030, 215, 73, -539, 5, 13, -18, 0, 0, 0, 1, 43240197
MAG2, 43241030, 215, 73, -539, 5, 13, -18, 0, 0, 0, 1, 43240197
BARO, 43241030, 0, 94502.781199999998, 26.010000000000002, 0, 43241, 0
CTUN, 43241030, 0, 0, 0, 0.36000001399999998, 0.029326880400000001, 0.00033786790999999999, 0, 0, 0, 0, 0, 0
ATT, 43241030, 0.080000000000000002, 0.080000000000000002, 0.10000000000000001, 0.10000000000000001, 356.92000000000002, 356.93000000000001, 0, 0
NKF1, 43241030, 0.080000000000000002, 0.10000000000000001, 356.92000000000002, -0.022161543400000001, 0.023674160199999999, -0.000183225216, 0, -0.0147145791, 0.015716191399999999, -0.00033786790999999999, 0.02, 0.02, -0.39000000000000001
NKF2, 43241030, 0, 0, 0, 0, 0, 0, 227, 0, -539, 0, 0, 0, 0
NKF3, 43241030, -0.01, 0.01, 0, 0, 0, 0, 0, 0, 0, 4.0099999999999998, 0
NKF4, 43241030, 0, 0, 0, 0.040000000000000001, 0, 8.81958622e-05, 0, 0, 0, 16, 9087, 0, 0
NKF5, 43241030, 0, 0, 0, 0, 0.050000000000000003, 0.040000000000000001, 0, 0.050000000000000003, 0.14999999999999999, 0.0040785982300000001, 0.000833730563, 0.000912103744
NKF6, 43241030, 0.080000000000000002, 0.10000000000000001, 356.93000000000001, -0.021822033500000001, 0.023606386, 0.000246559444, 0, -0.014502870899999999, 0.015658542500000001, -8.5517407600000004e-05, 0.01, 0.02, -0.39000000000000001
NKF7, 43241030, 0, 0, 0, 0, 0, 0, 227, 0, -539, 0, 0, 0, 0
NKF8, 43241030, -0.01, 0.01, 0, 0, 0, 0, 0, 0, 0, 4.0199999999999996, 0
NKF9, 43241030, 0, 0, 0, 0.040000000000000001, 0, 8.66642295e-05, 0, 0, 0, 16, 9087, 0, 0
AHR2, 43241030, 0.12, 0.14000000000000001, 352.83999999999997, 584.089966, -35.363260799999999, 149.16523509999999
SIM, 43241030, 0, 0, 353, 584.09002699999996, -35.363260799999999, 149.16523509999999
POS, 43241030, -35.3632609, 149.16523520000001, 584.089966, 0.00033786790999999999, 0.00033786790999999999
RATE, 43241030, 0.019897108899999998, 0.019897108899999998, 0, 0.025698576099999999, 0.025698576099999999, 0, 0.440213203, 0.440213203, -1.4012984600000001e-45, 0, 0.022029876699999999, 0
MOTB, 43241030, 1, 1, 0, 1
RCIN, 43241030, 1500, 1500, 1000, 1500, 1800, 1000, 1000, 1800, 0, 0, 0, 0, 0, 0
RCOU, 43241030, 1000, 1000, 1000, 1000, 0, 0, 0, 0, 0, 0, 0, 0, 0, 0
NTUN, 43241030, -0.207037896, 0.22853013899999999, -1.47145796, 1.5716191500000001, 0, 0, -2.2161543400000001, 2.3674159000000001, -0.32969921800000002, 0.205374047
VIBE, 43241030, 0.0059765446900000001, 0.0056222206899999997, 0.0056667178899999998, 0, 0, 0
CTRL, 43241030, 2.6469779599999998e-22, 2.6469779599999998e-22, 2.6469779599999998e-22, 2.6469779599999998e-22, 2.6469779599999998e-22
IMU, 43241030, 0.00071641977399999998, 0.00087607413300000003, 0.00079219753400000005, 0.00152003742, 0.0020168365400000002, -9.8058490799999998, 0, 0, 0, 1, 1
IMU2, 43241030, 0.00059506343700000005, 0.00076653435800000001, 0.00059871241700000001, 0.00187393196, 0.00079449295300000004, -9.8065156899999995, 0, 0, 0, 1, 1
GPS, 43281014, 6, 431248400, 1948, 10, 1.21, -35.363260799999999, 149.16523509999999, 584.09000000000003, 0, 0, 0, 1
GPA, 43281014, 2, 0.20000000000000001, 0.20000000000000001, 0.040000000000000001, 1, 43281
IMU, 43281014, 0.00066118541899999996, 0.00062046095299999997, 0.00068780081300000003, -0.00108316436, 0.00035091908599999997, -9.8051099799999992, 0, 0, 0, 1, 1
IMU2, 43281014, 0.00077283073900000004, 0.00057161593599999998, 0.000730928499, 0.0023902361299999999, 0.00145431957, -9.8062028899999998, 0, 0, 0, 1, 1
IMU, 43320998, 0.00066308386199999999, 0.000724594749, 0.00059096305600000001, 0.00182420923, 0.00320548448, -9.8062686899999996, 0, 0, 0, 1, 1
IMU2, 43320998, 0.00069846113900000003, 0.000752670458, 0.00063115218699999996, -0.00012409790400000001, 0.0011796546199999999, -9.8060522100000007, 0, 0, 0, 1, 1
CURR, 43341823, 12.5879774, 0, 0
MAG, 43341823, 215, 73, -539, 5, 13, -18, 0, 0, 0, 1, 43340157
MAG2, 43341823, 215, 73, -539, 5, 13, -18, 0, 0, 0, 1, 43340157
BARO, 43341823, 0, 94502.781199999998, 26.010000000000002, 0, 43341, 0
CTUN, 43341823, 0, 0, 0, 0.36000001399999998, 0.029326880400000001, 0.00033630721699999999, 0, 0, 0, 0, 0, 0
ATT, 43341823, 0.080000000000000002, 0.080000000000000002, 0.10000000000000001, 0.10000000000000001, 356.92000000000002, 356.93000000000001, 0, 0
NKF1, 43341823, 0.080000000000000002, 0.10000000000000001, 356.92000000000002, -0.022549712999999999, 0.0240913853, -0.000169181338, 0, -0.015287745700000001, 0.016328282699999998, -0.00033630721699999999, 0.02, 0.02, -0.39000000000000001
NKF2, 43341823, 0, 0, 0, 0, 0, 0, 227, 0, -539, 0, 0, 0, 0
NKF3, 43341823, -0.01, 0.02, 0, 0, 0, 0, 0, 0, 0, 4.0199999999999996, 0
NKF4, 43341823, 0, 0, 0, 0.040000000000000001, 0, 9.2034060799999997e-05, 0, 0, 0, 16, 9087, 0, 0
NKF5, 43341823, 0, 0, 0, 0, 0.050000000000000003, 0.040000000000000001, 0, 0.050000000000000003, 0.14999999999999999, 0.0039117480600000002, 0.0027021227899999998, 0.0032748072400000001
NKF6, 43341823, 0.080000000000000002, 0.10000000000000001, 356.93000000000001, -0.022111851700000001, 0.0240274779, 0.00025150726999999999, 0, -0.0150659084, 0.016281029200000002, -6.4512802099999994e-05, 0.01, 0.02, -0.39000000000000001
NKF7, 43341823, 0, 0, 0, 0, 0, 0, 227, 0, -539, 0, 0, 0, 0
NKF8, 43341823, -0.01, 0.01, 0, 0, 0, 0, 0, 0, 0, 4.0199999999999996, 0
NKF9, 43341823, 0, 0, 0, 0.040000000000000001, 0, 9.0546986000000001e-05, 0, 0, 0, 16, 9087, 0, 0
AHR2, 43341823, 0.12, 0.14000000000000001, 352.82999999999998, 584.089966, -35.363260799999999, 149.16523509999999
SIM, 43341823, 0, 0, 353, 584.09002699999996, -35.363260799999999, 149.16523509999999
POS, 43341823, -35.3632609, 149.16523520000001, 584.089966, 0.00033630721699999999, 0.00033630721699999999
RATE, 43341823, 0.022625472399999999, 0.022625472399999999, 0, 0.021473674099999999, 0.021473674099999999, 0, 0.43146184100000001, 0.43146184100000001, -1.4012984600000001e-45, 0, 0.041389465299999997, 0
MOTB, 43341823, 1, 1, 0, 1
RCIN, 43341823, 1500, 1500, 1000, 1500, 1800, 1000, 1000, 1800, 0, 0, 0, 0, 0, 0
RCOU, 43341823, 1000, 1000, 1000, 1000, 0, 0, 0, 0, 0, 0, 0, 0, 0, 0
NTUN, 43341823, -0.207037896, 0.22853013899999999, -1.5287746200000001, 1.63282824, 0, 0, -2.25497127, 2.40913844, -0.32969921800000002, 0.205374047
VIBE, 43341823, 0.0058023985499999998, 0.0054756924499999998, 0.0058545428300000001, 0, 0, 0
CTRL, 43341823, 2.6469779599999998e-22, 2.6469779599999998e-22, 2.6469779599999998e-22, 2.6469779599999998e-22, 2.6469779599999998e-22
IMU, 43361815, 0.00066867499799999998, 0.00087979575599999996, 0.000716023729, 0.00029174709900000001, -0.00106304791, -9.8059978500000007, 0, 0, 0, 1, 1
IMU2, 43361815, 0.00065791088899999997, 0.00074486411200000002, 0.00065640633699999996, 0.0024688907400000001, -0.00015876983500000001, -9.8052511199999994, 0, 0, 0, 1, 1
IMU, 43401799, 0.00073184166099999996, 0.00079709559199999996, 0.00081519153899999996, 0.00091784325199999997, 0.0025394214300000001, -9.8048601200000007, 0, 0, 0, 1, 1
IMU2, 43401799, 0.00080178870100000002, 0.00058029888899999995, 0.00057009520200000002, 0.00034659888499999998, -0.00068698549900000005, -9.8048257799999998, 0, 0, 0, 1, 1
CURR, 43441783, 12.5879774, 0, 0
MAG, 43441783, 215, 73, -539, 5, 13, -18, 0, 0, 0, 1, 43440117
MAG2, 43441783, 215, 73, -539, 5, 13, -18, 0, 0, 0, 1, 43440117
BARO, 43441783, 0, 94502.781199999998, 26.010000000000002, 0, 43441, 0
CTUN, 43441783, 0, 0, 0, 0.36000001399999998, 0.029326880400000001, 0.00033608399099999998, 0, 0, 0, 0, 0, 0
ATT, 43441783, 0.080000000000000002, 0.080000000000000002, 0.10000000000000001, 0.10000000000000001, 356.92000000000002, 356.93000000000001, 0, 0
NKF1, 43441783, 0.080000000000000002, 0.10000000000000001, 356.92000000000002, -0.022788466899999998, 0.0242766123, -0.00019070680699999999, 0, -0.0157254189, 0.0167981572, -0.00033608399099999998, 0.02, 0.02, -0.39000000000000001
NKF2, 43441783, 0, 0, 0, 0, 0, 0, 227, 0, -539, 0, 0, 0, 0
NKF3, 43441783, -0.01, 0.02, 0, 0, 0, 0, 0, 0, 0, 4.0099999999999998, 0
NKF4, 43441783, 0, 0, 0, 0.040000000000000001, 0, 9.6155905299999994e-05, 0, 0, 0, 16, 9087, 0, 0
NKF5, 43441783, 0, 0, 0, 0, 0.050000000000000003, 0.040000000000000001, 0, 0.050000000000000003, 0.14999999999999999, 0.0037434054499999999, 0.00093813607200000004, 0.0011604921900000001
NKF6, 43441783, 0.080000000000000002, 0.10000000000000001, 356.92000000000002, -0.022357298099999999, 0.0242461432, 0.000272945006, 0, -0.015495794800000001, 0.016760416300000001, -4.4840340700000002e-05, 0.01, 0.02, -0.39000000000000001
NKF7, 43441783, 0, 0, 0, 0, 0, 0, 227, 0, -539, 0, 0, 0, 0
NKF8, 43441783, -0.01, 0.01, 0, 0, 0, 0, 0, 0, 0, 4.0099999999999998, 0
NKF9, 43441783, 0, 0, 0, 0.040000000000000001, 0, 9.4489842000000006e-05, 0, 0, 0, 16, 9087, 0, 0
AHR2, 43441783, 0.12, 0.14000000000000001, 352.82999999999998, 584.089966, -35.363260799999999, 149.16523509999999
SIM, 43441783, 0, 0, 353, 584.09002699999996, -35.363260799999999, 149.16523509999999
POS, 43441783, -35.3632609, 149.16523520000001, 584.089966, 0.00033608399099999998, 0.00033608399099999998
RATE, 43441783, 0.0116203604, 0.0116203604, 0, 0.0243120883, 0.0243120883, 0, 0.427164763, 0.427164763, -1.4012984600000001e-45, 0, 0.206851959, 0
MOTB, 43441783, 1, 1, 0, 1
RCIN, 43441783, 1500, 1500, 1000, 1500, 1800, 1000, 1000, 1800, 0, 0, 0, 0, 0, 0
RCOU, 43441783, 1000, 1000, 1000, 1000, 0, 0, 0, 0, 0, 0, 0, 0, 0, 0
NTUN, 43441783, -0.207037896, 0.22853013899999999, -1.57254195, 1.67981577, 0, 0, -2.2788467400000001, 2.4276611799999999, -0.32969921800000002, 0.205374047
VIBE, 43441783, 0.0056522875100000003, 0.0056889043200000003, 0.0057980548599999996, 0, 0, 0
CTRL, 43441783, 2.6469779599999998e-22, 2.6469779599999998e-22, 2.6469779599999998e-22, 2.6469779599999998e-22, 2.6469779599999998e-22
IMU, 43441783, 0.00057370820999999995, 0.00085367041200000004, 0.00062387547200000004, -2.14849279e-05, -0.00026932128799999998, -9.8076992000000001, 0, 0, 0, 1, 1
IMU2, 43441783, 0.00075011566500000004, 0.00073945790099999998, 0.00068729929599999995, 0.000738738396, 0.0013786524100000001, -9.8057041199999997, 0, 0, 0, 1, 1
GPS, 43481767, 6, 431248600, 1948, 10, 1.21, -35.363260799999999, 149.16523509999999, 584.09000000000003, 0, 0, 0, 1
GPA, 43481767, 2, 0.20000000000000001, 0.20000000000000001, 0.040000000000000001, 1, 43481
IMU, 43481767, 0.00072119594600000001, 0.00072860560599999997, 0.00071938219500000005, 0.0031493022100000001, 0.0026171552, -9.8061904900000005, 0, 0, 0, 1, 1
IMU2, 43481767, 0.00073522096500000002, 0.00069596793, 0.00067741516999999998, -0.00060406781300000002, -0.00014402155600000001, -9.8053760499999996, 0, 0, 0, 1, 1
IMU, 43521751, 0.00052940467099999995, 0.00072134996299999998, 0.00068252318300000001, 0.00121145591, 0.0027027076599999999, -9.8055553399999997, 0, 0, 0, 1, 1
IMU2, 43521751, 0.00062608707200000004, 0.00082351523499999996, 0.00071612943400000003, 0.00119956676, 0.00152106502, -9.8060131100000003, 0, 0, 0, 1, 1
CURR, 43541743, 12.5879774, 0, 0
MAG, 43541743, 215, 73, -539, 5, 13, -18, 0, 0, 0, 1, 43540077
MAG2, 43541743, 215, 73, -539, 5, 13, -18, 0, 0, 0, 1, 43540077
BARO, 43541743, 0, 94502.781199999998, 26.010000000000002, 0, 43541, 0
CTUN, 43541743, 0, 0, 0, 0.36000001399999998, 0.029326880400000001, 0.00033860359699999998, 0, 0, 0, 0, 0, 0
ATT, 43541743, 0.080000000000000002, 0.080000000000000002, 0.10000000000000001, 0.10000000000000001, 356.92000000000002, 356.93000000000001, 0, 0
NKF1, 43541743, 0.080000000000000002, 0.10000000000000001, 356.92000000000002, -0.022973718099999998, 0.024618800699999999, -0.00012673970199999999, 0, -0.016211247099999999, 0.017326152000000001, -0.00033860359699999998, 0.02, 0.02, -0.38
NKF2, 43541743, 0, 0, 0, 0, 0, 0, 227, 0, -539, 0, 0, 0, 0
NKF3, 43541743, -0.01, 0.02, 0, 0, 0, 0, 0, 0, 0, 4, 0
NKF4, 43541743, 0, 0, 0, 0.040000000000000001, 0, 9.9519427700000003e-05, 0, 0, 0, 16, 9087, 0, 0
NKF5, 43541743, 0, 0, 0, 0, 0.050000000000000003, 0.040000000000000001, 0, 0.050000000000000003, 0.14999999999999999, 0.0042045177000000003, 0.00284523517, 0.0035908746100000001
NKF6, 43541743, 0.080000000000000002, 0.10000000000000001, 356.92000000000002, -0.022718738799999999, 0.024514689999999999, 0.00029667301000000002, 0, -0.015985893099999999, 0.0172925349, -2.3278182200000001e-05, 0.02, 0.02, -0.39000000000000001
NKF7, 43541743, 0, 0, 0, 0, 0, 0, 227, 0, -539, 0, 0, 0, 0
NKF8, 43541743, -0.01, 0.02, 0, 0, 0, 0, 0, 0, 0, 4.0099999999999998, 0
NKF9, 43541743, 0, 0, 0, 0.040000000000000001, 0, 9.7907082799999993e-05, 0, 0, 0, 16, 9087, 0, 0
AHR2, 43541743, 0.12, 0.14000000000000001, 352.82999999999998, 584.089966, -35.363260799999999, 149.16523509999999
SIM, 43541743, 0, 0, 353, 584.09002699999996, -35.363260799999999, 149.16523509999999
POS, 43541743, -35.3632609, 149.16523520000001, 584.089966, 0.00033860359699999998, 0.00033860359699999998
RATE, 43541743, 0.023111030500000001, 0.023111030500000001, 0, 0.024706257499999999, 0.024706257499999999, 0, 0.427509904, 0.427509904, -1.4012984600000001e-45, 0, -0.22201538100000001, 0
MOTB, 43541743, 1, 1, 0, 1
RCIN, 43541743, 1500, 1500, 1000, 1500, 1800, 1000, 1000, 1800, 0, 0, 0, 0, 0, 0
RCOU, 43541743, 1000, 1000, 1000, 1000, 0, 0, 0, 0, 0, 0, 0, 0, 0, 0
NTUN, 43541743, -0.207037896, 0.22853013899999999, -1.62112474, 1.73261523, 0, 0, -2.2973718600000002, 2.46187997, -0.32969921800000002, 0.205374047
VIBE, 43541743, 0.0060493629399999997, 0.0055695567300000004, 0.0055205798700000003, 0, 0, 0
CTRL, 43541743, 2.6469779599999998e-22, 2.6469779599999998e-22, 2.6469779599999998e-22, 2.6469779599999998e-22, 2.6469779599999998e-22
IMU, 43561735, 0.00076463609000000004, 0.00071526248900000004, 0.00076498766400000002, 0.00019936347999999999, -0.00098531832899999999, -9.8045835500000003, 0, 0, 0, 1, 1
IMU2, 43561735, 0.000716023322, 0.00074493238899999998, 0.00067772029399999995, 0.0015436565699999999, 0.0031101135499999998, -9.8057556199999993, 0, 0, 0, 1, 1
IMU, 43601719, 0.00077759096200000005, 0.00069785560500000001, 0.00069372385, -0.00030490275800000002, 0.0018402694300000001, -9.8049516699999995, 0, 0, 0, 1, 1
IMU2, 43601719, 0.00069826410599999999, 0.000671017973, 0.00061461131599999997, 0.0010493787700000001, -0.0016268370700000001, -9.8061103799999998, 0, 0, 0, 1, 1
CURR, 43641703, 12.5879774, 0, 0
MAG, 43641703, 215, 73, -539, 5, 13, -18, 0, 0, 0, 1, 43640037
MAG2, 43641703, 215, 73, -539, 5, 13, -18, 0, 0, 0, 1, 43640037
BARO, 43641703, 0, 94502.781199999998, 26.010000000000002, 0, 43641, 0
CTUN, 43641703, 0, 0, 0, 0.36000001399999998, 0.029326880400000001, 0.00033300751199999998, 0, 0, 0, 0, 0, 0
ATT, 43641703, 0.080000000000000002, 0.080000000000000002, 0.10000000000000001, 0.10000000000000001, 356.92000000000002, 356.93000000000001, 0, 0
NKF1, 43641703, 0.080000000000000002, 0.10000000000000001, 356.92000000000002, -0.023077253299999999, 0.024724237600000001, -3.4557513600000001e-05, 0, -0.016576979299999999, 0.0177253876, -0.00033300748299999999, 0.02, 0.02, -0.38
NKF2, 43641703, 0, 0, 0, 0, 0, 0, 227, 0, -539, 0, 0, 0, 0
NKF3, 43641703, -0.01, 0.02, 0, 0, 0, 0, 0, 0, 0, 4, 0
NKF4, 43641703, 0, 0, 0, 0.040000000000000001, 0, 0.000102952545, 0, 0, 0, 16, 9087, 0, 0
NKF5, 43641703, 0, 0, 0, 0, 0.050000000000000003, 0.040000000000000001, 0, 0.050000000000000003, 0.14999999999999999, 0.0040344810100000003, 0.0010066250100000001, 0.0013514139
NKF6, 43641703, 0.080000000000000002, 0.089999999999999997, 356.92000000000002, -0.022829366800000001, 0.024644019100000001, 0.00026828961599999998, 0, -0.016358062600000001, 0.017697949000000001, -4.9064947199999999e-06, 0.02, 0.02, -0.38
NKF7, 43641703, 0, 0, 0, 0, 0, 0, 227, 0, -539, 0, 0, 0, 0
NKF8, 43641703, -0.01, 0.02, 0, 0, 0, 0, 0, 0, 0, 4.0099999999999998, 0
NKF9, 43641703, 0, 0, 0, 0.040000000000000001, 0, 0.000101403253, 0, 0, 0, 16, 9087, 0, 0
AHR2, 43641703, 0.12, 0.14000000000000001, 352.82999999999998, 584.089966, -35.363260799999999, 149.16523509999999
SIM, 43641703, 0, 0, 353, 584.09002699999996, -35.363260799999999, 149.16523509999999
POS, 43641703, -35.3632609, 149.16523520000001, 584.089966, 0.00033300748299999999, 0.00033300748299999999
RATE, 43641703, 0.013469330999999999, 0.013469330999999999, 0, 0.026249824099999999, 0.026249824099999999, 0, 0.42919781800000001, 0.42919781800000001, -1.4012984600000001e-45, 0, -0.16250610400000001, 0
MOTB, 43641703, 1, 1, 0, 1
RCIN, 43641703, 1500, 1500, 1000, 1500, 1800, 1000, 1000, 1800, 0, 0, 0, 0, 0, 0
RCOU, 43641703, 1000, 1000, 1000, 1000, 0, 0, 0, 0, 0, 0, 0, 0, 0, 0
NTUN, 43641703, -0.207037896, 0.22853013899999999, -1.6576979199999999, 1.7725387800000001, 0, 0, -2.3077254300000001, 2.4724237900000001, -0.32969921800000002, 0.205374047
VIBE, 43641703, 0.0058492492, 0.0054582711300000001, 0.00545411929, 0, 0, 0
CTRL, 43641703, 2.6469779599999998e-22, 2.6469779599999998e-22, 2.6469779599999998e-22, 2.6469779599999998e-22, 2.6469779599999998e-22
IMU, 43641703, 0.00060848926700000005, 0.00089013204000000002, 0.00073081767199999995, 0.0038014412900000002, 0.00022413148000000001, -9.8039989500000004, 0, 0, 0, 1, 1
IMU2, 43641703, 0.00079987756899999995, 0.00078980327800000003, 0.00054923008400000004, 0.00121398969, 0.00066287454700000002, -9.8059034300000008, 0, 0, 0, 1, 1
GPS, 43681687, 6, 431248800, 1948, 10, 1.21, -35.363260799999999, 149.16523509999999, 584.09000000000003, 0, 0, 0, 1
GPA, 43681687, 2, 0.20000000000000001, 0.20000000000000001, 0.040000000000000001, 1, 43681
IMU, 43681687, 0.00081808754499999999, 0.00077426509199999996, 0.00080827402400000001, 0.0025471046099999999, 0.0036980532999999999, -9.8064269999999993, 0, 0, 0, 1, 1
IMU2, 43681687, 0.00062200299000000003, 0.000767856603, 0.000692645321, 0.00109668321, 0.0020761750600000002, -9.8059787800000002, 0, 0, 0, 1, 1
IMU, 43721671, 0.00075569952600000004, 0.00073544756699999998, 0.00069078372299999997, 0.00082014349800000003, -0.00021362959499999999, -9.8077592800000009, 0, 0, 0, 1, 1
IMU2, 43721671, 0.00064300891199999997, 0.00065643282099999995, 0.00062747613999999995, 0.00178623782, 0.0016373689299999999, -9.8046798699999993, 0, 0, 0, 1, 1
CURR, 43741663, 12.5879774, 0, 0
MAG, 43741663, 215, 73, -539, 5, 13, -18, 0, 0, 0, 1, 43740830
MAG2, 43741663, 215, 73, -539, 5, 13, -18, 0, 0, 0, 1, 43740830
BARO, 43741663, 0, 94502.781199999998, 26.010000000000002, 0, 43741, 0
CTUN, 43741663, 0, 0, 0, 0.36000001399999998, 0.029326880400000001, 0.00032397822400000002, 0, 0, 0, 0, 0, 0
ATT, 43741663, 0.080000000000000002, 0.080000000000000002, 0.10000000000000001, 0.10000000000000001, 356.91000000000003, 356.92000000000002, 0, 0
NKF1, 43741663, 0.080000000000000002, 0.10000000000000001, 356.91000000000003, -0.023234425100000001, 0.024864938100000001, -4.57231326e-05, 0, -0.016990358000000001, 0.018182046699999999, -0.00032397822400000002, 0.02, 0.02, -0.38
NKF2, 43741663, 0, 0, 0, 0, 0, 0, 227, 0, -539, 0, 0, 0, 0
NKF3, 43741663, -0.01, 0.02, 0, 0, 0, 0, 0, 0, 0, 4.0099999999999998, 0
NKF4, 43741663, 0, 0, 0, 0.040000000000000001, 0, 0.000105749954, 0, 0, 0, 16, 9087, 0, 0
NKF5, 43741663, 0, 0, 0, 0, 0.050000000000000003, 0.040000000000000001, 0, 0.050000000000000003, 0.14999999999999999, 0.0038685910400000001, 0.0029607366299999999, 0.00385912601
NKF6, 43741663, 0.080000000000000002, 0.089999999999999997, 356.92000000000002, -0.023014448600000001, 0.024818381300000001, 0.00024885041099999999, 0, -0.016780676299999998, 0.018154272799999999, 9.1840029200000001e-06, 0.02, 0.02, -0.38
NKF7, 43741663, 0, 0, 0, 0, 0, 0, 227, 0, -539, 0, 0, 0, 0
NKF8, 43741663, -0.01, 0.02, 0, 0, 0, 0, 0, 0, 0, 4.0099999999999998, 0
NKF9, 43741663, 0, 0, 0, 0.040000000000000001, 0, 0.000104321385, 0, 0, 0, 16, 9087, 0, 0
AHR2, 43741663, 0.12, 0.14000000000000001, 352.81999999999999, 584.089966, -35.363260799999999, 149.16523509999999
SIM, 43741663, 0, 0, 353, 584.09002699999996, -35.363260799999999, 149.16523509999999
POS, 43741663, -35.3632609, 149.16523530000001, 584.089966, 0.00032397822400000002, 0.00032397822400000002
RATE, 43741663, 0.029092202000000001, 0.029092202000000001, 0, 0.016228353599999999, 0.016228353599999999, 0, 0.42893525999999998, 0.42893525999999998, -1.4012984600000001e-45, 0, -0.22392272899999999, 0
MOTB, 43741663, 1, 1, 0, 1
RCIN, 43741663, 1500, 1500, 1000, 1500, 1800, 1000, 1000, 1800, 0, 0, 0, 0, 0, 0
RCOU, 43741663, 1000, 1000, 1000, 1000, 0, 0, 0, 0, 0, 0, 0, 0, 0, 0
NTUN, 43741663, -0.207037896, 0.22853013899999999, -1.6990357599999999, 1.81820464, 0, 0, -2.3234424599999999, 2.4864938300000001, -0.32969921800000002, 0.205374047
VIBE, 43741663, 0.0054867491100000004, 0.0055982372699999996, 0.0057779764799999996, 0, 0, 0
CTRL, 43741663, 2.6469779599999998e-22, 2.6469779599999998e-22, 2.6469779599999998e-22, 2.6469779599999998e-22, 2.6469779599999998e-22
IMU, 43761655, 0.00064221420299999995, 0.00070817570700000001, 0.0006699675, 0.0010069296700000001, 0.0023682287400000001, -9.8036193800000007, 0, 0, 0, 1, 1
IMU2, 43761655, 0.00059615267699999997, 0.00071038841300000003, 0.00069344585099999996, 0.0023018130999999998, 0.0017360206699999999, -9.8051242799999994, 0, 0, 0, 1, 1
IMU, 43801639, 0.00081685883899999996, 0.00075206335199999997, 0.00072774762500000005, -0.00021905449100000001, 0.0020723305600000002, -9.80470562, 0, 0, 0, 1, 1
IMU2, 43801639, 0.00082947901699999998, 0.00087694422100000004, 0.00066521414599999998, 0.0023094092000000002, 0.00344850449, -9.8060054799999996, 0, 0, 0, 1, 1
CURR, 43841623, 12.5879774, 0, 0
MAG, 43841623, 215, 73, -539, 5, 13, -18, 0, 0, 0, 1, 43840790
MAG2, 43841623, 215, 73, -539, 5, 13, -18, 0, 0, 0, 1, 43840790
BARO, 43841623, 0, 94502.781199999998, 26.010000000000002, 0, 43841, 0
CTUN, 43841623, 0, 0, 0, 0.36000001399999998, 0.029326880400000001, 0.00031003204599999999, 0, 0, 0, 0, 0, 0
DU32, 43841623, 7, 17163736
TERR, 43841623, 2, -35.3632609, 149.16523530000001, 100, 583.88293499999997, 6.1035156199999997e-05, 0, 504
ATT, 43841623, 0.080000000000000002, 0.080000000000000002, 0.089999999999999997, 0.089999999999999997, 356.91000000000003, 356.92000000000002, 0, 0
NKF1, 43841623, 0.080000000000000002, 0.089999999999999997, 356.91000000000003, -0.023350235099999998, 0.024986790500000002, -5.7332368900000004e-07, 0, -0.017277080600000001, 0.0185005814, -0.00031003204599999999, 0.02, 0.02, -0.38
NKF2, 43841623, 0, 0, 0, 0, 0, 0, 227, 0, -539, 0, 0, 0, 0
NKF3, 43841623, -0.01, 0.02, 0, 0, 0, 0, 0, 0, 0, 4, 0
NKF4, 43841623, 0, 0, 0, 0.040000000000000001, 0, 0.000108623972, 0, 0, 0, 16, 9087, 0, 0
NKF5, 43841623, 0, 0, 0, 0, 0.050000000000000003, 0.040000000000000001, 0, 0.050000000000000003, 0.14999999999999999, 0.00369852898, 0.00104723626, 0.00148933614
NKF6, 43841623, 0.080000000000000002, 0.089999999999999997, 356.92000000000002, -0.0230646189, 0.0249794144, 0.00024391843200000001, 0, -0.017076447599999999, 0.018478812599999998, 2.2008849599999999e-05, 0.02, 0.02, -0.38
NKF7, 43841623, 0, 0, 0, 0, 0, 0, 227, 0, -539, 0, 0, 0, 0
NKF8, 43841623, -0.01, 0.02, 0, 0, 0, 0, 0, 0, 0, 4, 0
NKF9, 43841623, 0, 0, 0, 0.040000000000000001, 0, 0.00010719114700000001, 0, 0, 0, 16, 9087, 0, 0
AHR2, 43841623, 0.12, 0.14000000000000001, 352.81999999999999, 584.089966, -35.363260799999999, 149.16523509999999
SIM, 43841623, 0, 0, 353, 584.09002699999996, -35.363260799999999, 149.16523509999999
POS, 43841623, -35.3632609, 149.16523530000001, 584.089966, 0.00031003204599999999, 0.00031003204599999999
RATE, 43841623, 0.020835488999999999, 0.020835488999999999, 0, 0.017531482500000001, 0.017531482500000001, 0, 0.420887381, 0.420887381, -1.4012984600000001e-45, 0, 0.0071525573699999997, 0
MOTB, 43841623, 1, 1, 0, 1
RCIN, 43841623, 1500, 1500, 1000, 1500, 1800, 1000, 1000, 1800, 0, 0, 0, 0, 0, 0
RCOU, 43841623, 1000, 1000, 1000, 1000, 0, 0, 0, 0, 0, 0, 0, 0, 0, 0
NTUN, 43841623, -0.207037896, 0.22853013899999999, -1.7277081000000001, 1.8500580799999999, 0, 0, -2.3350233999999999, 2.49867916, -0.32969921800000002, 0.205374047
VIBE, 43841623, 0.0055116568700000002, 0.0057188039600000002, 0.0058293691800000002, 0, 0, 0
CTRL, 43841623, 2.6469779599999998e-22, 2.6469779599999998e-22, 2.6469779599999998e-22, 2.6469779599999998e-22, 2.6469779599999998e-22
IMU, 43841623, 0.00073958176699999998, 0.00074065645500000004, 0.00063287781100000002, 0.00149169134, 0.00186733808, -9.8057012599999993, 0, 0, 0, 1, 1
IMU2, 43841623, 0.00067037140300000003, 0.00061467906899999997, 0.00082458707000000004, 0.00080112653100000003, 0.0009894733079999999, -9.8059186900000004, 0, 0, 0, 1, 1
GPS, 43881607, 6, 431249000, 1948, 10, 1.21, -35.363260799999999, 149.16523509999999, 584.09000000000003, 0, 0, 0, 1
GPA, 43881607, 2, 0.20000000000000001, 0.20000000000000001, 0.040000000000000001, 1, 43881
IMU, 43881607, 0.00069462170399999998, 0.00084243691500000004, 0.00062450888799999999, 0.00094255694400000002, 0.00046885214399999998, -9.8064460800000006, 0, 0, 0, 1, 1
IMU2, 43881607, 0.00071866053600000001, 0.00080216122999999997, 0.000637770805, 0.00027541222500000002, 0.00218066946, -9.8076343500000007, 0, 0, 0, 1, 1
IMU, 43921591, 0.00082763493999999998, 0.00076122407300000005, 0.00065851572399999996, 0.000146023973, 0.0024778663599999999, -9.8054838199999992, 0, 0, 0, 1, 1
IMU2, 43921591, 0.00070470961500000001, 0.00078549550400000003, 0.00070917792599999995, -0.00065522576900000002, 0.00098793313399999998, -9.8040132500000006, 0, 0, 0, 1, 1
CURR, 43941583, 12.5879774, 0, 0
MAG, 43941583, 215, 73, -539, 5, 13, -18, 0, 0, 0, 1, 43940750
MAG2, 43941583, 215, 73, -539, 5, 13, -18, 0, 0, 0, 1, 43940750
BARO, 43941583, 0, 94502.781199999998, 26.010000000000002, 0, 43941, 0
CTUN, 43941583, 0, 0, 0, 0.36000001399999998, 0.029326880400000001, 0.00030067737700000002, 0, 0, 0, 0, 0, 0
ATT, 43941583, 0.080000000000000002, 0.080000000000000002, 0.089999999999999997, 0.089999999999999997, 356.91000000000003, 356.92000000000002, 0, 0
NKF1, 43941583, 0.080000000000000002, 0.089999999999999997, 356.91000000000003, -0.023391088500000001, 0.025101205299999998, -2.90493608e-05, 0, -0.017619939500000001, 0.0188825764, -0.00030067737700000002, 0.02, 0.02, -0.38
NKF2, 43941583, 0, 0, 0, 0, 0, 0, 227, 0, -539, 0, 0, 0, 0
NKF3, 43941583, -0.01, 0.02, 0, 0, 0.01, 0, 0, 0, 0, 3.98, 0
NKF4, 43941583, 0, 0, 0, 0.040000000000000001, 0, 0.0001108957, 0, 0, 0, 16, 9087, 0, 0
NKF5, 43941583, 0, 0, 0, 0, 0.050000000000000003, 0.040000000000000001, 0, 0.050000000000000003, 0.14999999999999999, 0.0041502756100000003, 0.0030267804400000002, 0.0040498101200000004
NKF6, 43941583, 0.080000000000000002, 0.089999999999999997, 356.91000000000003, -0.0232428797, 0.025134567199999999, 0.00026951526499999998, 0, -0.017429603299999999, 0.018870742999999999, 3.3057451200000002e-05, 0.02, 0.02, -0.38
NKF7, 43941583, 0, 0, 0, 0, 0, 0, 227, 0, -539, 0, 0, 0, 0
NKF8, 43941583, -0.01, 0.02, 0, 0, 0.01, 0, 0, 0, 0, 3.9900000000000002, 0
NKF9, 43941583, 0, 0, 0, 0.040000000000000001, 0, 0.00010951978000000001, 0, 0, 0, 16, 9087, 0, 0
AHR2, 43941583, 0.12, 0.14000000000000001, 352.81999999999999, 584.089966, -35.363260799999999, 149.16523509999999
SIM, 43941583, 0, 0, 353, 584.09002699999996, -35.363260799999999, 149.16523509999999
POS, 43941583, -35.3632609, 149.16523530000001, 584.089966, 0.00030067737700000002, 0.00030067737700000002
RATE, 43941583, 0.019549693900000002, 0.019549693900000002, 0, 0.022013925, 0.022013925, 0, 0.42309349800000001, 0.42309349800000001, -1.4012984600000001e-45, 0, 0.023841857899999999, 0
MOTB, 43941583, 1, 1, 0, 1
RCIN, 43941583, 1500, 1500, 1000, 1500, 1800, 1000, 1000, 1800, 0, 0, 0, 0, 0, 0
RCOU, 43941583, 1000, 1000, 1000, 1000, 0, 0, 0, 0, 0, 0, 0, 0, 0, 0
NTUN, 43941583, -0.207037896, 0.22853013899999999, -1.7619940000000001, 1.8882576200000001, 0, 0, -2.33910894, 2.5101206299999999, -0.32969921800000002, 0.205374047
VIBE, 43941583, 0.0058547132599999999, 0.0056618144700000001, 0.0061027240000000003, 0, 0, 0
CTRL, 43941583, 2.6469779599999998e-22, 2.6469779599999998e-22, 2.6469779599999998e-22, 2.6469779599999998e-22, 2.6469779599999998e-22
IMU, 43961575, 0.00061573879799999996, 0.00075059320099999998, 0.00083153438799999995, 0.0010747836200000001, 0.00180855638, -9.8059921299999999, 0, 0, 0, 1, 1
IMU2, 43961575, 0.00072974839700000005, 0.00059029628799999996, 0.00063459336499999998, 0.00068297074200000005, 0.00144241902, -9.8049707399999999, 0, 0, 0, 1, 1
IMU, 44001559, 0.00082436954800000001, 0.00071794079799999998, 0.00059523817600000005, 0.00022384821200000001, 0.0021598036400000001, -9.8056001699999999, 0, 0, 0, 1, 1
IMU2, 44001559, 0.000723179546, 0.00062403728999999995, 0.00066492176800000003, 0.00068043376100000003, 0.0021735969899999998, -9.8048839599999997, 0, 0, 0, 1, 1
CURR, 44041543, 12.5879774, 0, 0
MAG, 44041543, 215, 73, -539, 5, 13, -18, 0, 0, 0, 1, 44040710
MAG2, 44041543, 215, 73, -539, 5, 13, -18, 0, 0, 0, 1, 44040710
BARO, 44041543, 0, 94502.781199999998, 26.010000000000002, 0, 44041, 0
CTUN, 44041543, 0, 0, 0, 0.36000001399999998, 0.029326880400000001, 0.00029691244699999998, 0, 0, 0, 0, 0, 0
ATT, 44041543, 0.080000000000000002, 0.080000000000000002, 0.089999999999999997, 0.089999999999999997, 356.91000000000003, 356.92000000000002, 0, 0
NKF1, 44041543, 0.080000000000000002, 0.089999999999999997, 356.91000000000003, -0.0234000683, 0.0251500178, -5.3074905699999997e-05, 0, -0.0178313833, 0.019126659300000001, -0.00029691244699999998, 0.02, 0.02, -0.38
NKF2, 44041543, 0, 0, 0, 0, 0, 0, 227, 0, -539, 0, 0, 0, 0
NKF3, 44041543, -0.01, 0.02, 0, 0, 0.01, 0, 0, 0, 0, 3.9900000000000002, 0
NKF4, 44041543, 0, 0, 0, 0.040000000000000001, 0, 0.00011308345000000001, 0, 0, 0, 16, 9087, 0, 0
NKF5, 44041543, 0, 0, 0, 0, 0.050000000000000003, 0.040000000000000001, 0, 0.050000000000000003, 0.14999999999999999, 0.0039794207599999996, 0.00105309521, 0.0015707009000000001
NKF6, 44041543, 0.080000000000000002, 0.089999999999999997, 356.91000000000003, -0.023278024000000001, 0.025232059899999999, 0.00029223121200000002, 0, -0.017657030399999999, 0.019128227599999999, 4.51570086e-05, 0.02, 0.02, -0.38
NKF7, 44041543, 0, 0, 0, 0, 0, 0, 227, 0, -539, 0, 0, 0, 0
NKF8, 44041543, -0.01, 0.02, 0, 0, 0.01, 0, 0, 0, 0, 3.9900000000000002, 0
NKF9, 44041543, 0, 0, 0, 0.040000000000000001, 0, 0.00011169981, 0, 0, 0, 16, 9087, 0, 0
AHR2, 44041543, 0.12, 0.13, 352.81999999999999, 584.089966, -35.363260799999999, 149.16523509999999
SIM, 44041543, 0, 0, 353, 584.09002699999996, -35.363260799999999, 149.16523509999999
POS, 44041543, -35.3632609, 149.16523530000001, 584.089966, 0.00029691244699999998, 0.00029691244699999998
RATE, 44041543, 0.0223709978, 0.0223709978, 0, 0.010782360100000001, 0.010782360100000001, 0, 0.41861638400000001, 0.41861638400000001, -1.4012984600000001e-45, 0, -0.107288361, 0
MOTB, 44041543, 1, 1, 0, 1
RCIN, 44041543, 1500, 1500, 1000, 1500, 1800, 1000, 1000, 1800, 0, 0, 0, 0, 0, 0
RCOU, 44041543, 1000, 1000, 1000, 1000, 0, 0, 0, 0, 0, 0, 0, 0, 0, 0
NTUN, 44041543, -0.207037896, 0.22853013899999999, -1.78313828, 1.91266596, 0, 0, -2.3400068300000001, 2.51500177, -0.32969921800000002, 0.205374047
VIBE, 44041543, 0.0059257107800000002, 0.0056286985100000003, 0.0054191835199999998, 0, 0, 0
CTRL, 44041543, 2.6469779599999998e-22, 2.6469779599999998e-22, 2.6469779599999998e-22, 2.6469779599999998e-22, 2.6469779599999998e-22
IMU, 44041543, 0.00076894031400000001, 0.00062553572899999999, 0.00066457973999999996, 0.0013837183400000001, 0.00152465305, -9.8045558899999996, 0, 0, 0, 1, 1
IMU2, 44041543, 0.00077753776000000002, 0.00060109974599999996, 0.00078509195000000002, 0.00037190900200000001, 0.00202473276, -9.8049058900000006, 0, 0, 0, 1, 1
GPS, 44081527, 6, 431249200, 1948, 10, 1.21, -35.363260799999999, 149.16523509999999, 584.09000000000003, 0, 0, 0, 1
GPA, 44081527, 2, 0.20000000000000001, 0.20000000000000001, 0.040000000000000001, 1, 44081
IMU, 44081527, 0.00065056985499999998, 0.00078931951400000003, 0.00064560968899999996, 0.00081276381399999998, 0.00110387697, -9.8045825999999998, 0, 0, 0, 1, 1
IMU2, 44081527, 0.00072554854000000002, 0.00075385731199999998, 0.00072737620200000002, 0.00146808615, 0.00183671305, -9.8075361300000008, 0, 0, 0, 1, 1
IMU, 44121511, 0.00073472072800000003, 0.00069976697000000002, 0.00064279447499999997, 0.00027502016699999999, 0.0017397305899999999, -9.8050746899999996, 0, 0, 0, 1, 1
IMU2, 44121511, 0.00075791624799999996, 0.00089233927400000001, 0.00064533267899999998, 0.00100686646, 0.00055517791800000003, -9.8074274100000007, 0, 0, 0, 1, 1
CURR, 44141503, 12.5879774, 0, 0
MAG, 44141503, 215, 73, -539, 5, 13, -18, 0, 0, 0, 1, 44140670
MAG2, 44141503, 215, 73, -539, 5, 13, -18, 0, 0, 0, 1, 44140670
BARO, 44141503, 0, 94502.781199999998, 26.010000000000002, 0, 44141, 0
CTUN, 44141503, 0, 0, 0, 0.36000001399999998, 0.029326880400000001, 0.00029188676900000001, 0, 0, 0, 0, 0, 0
ATT, 44141503, 0.080000000000000002, 0.080000000000000002, 0.089999999999999997, 0.089999999999999997, 356.89999999999998, 356.91000000000003, 0, 0
NKF1, 44141503, 0.080000000000000002, 0.089999999999999997, 356.89999999999998, -0.023440800599999999, 0.0251593832, -1.05115623e-05, 0, -0.018103973900000001, 0.0194361433, -0.00029188676900000001, 0.02, 0.02, -0.37
NKF2, 44141503, 0, 0, 0, 0, 0, 0, 227, 0, -539, 0, 0, 0, 0
NKF3, 44141503, -0.01, 0.02, 0, 0, 0.01, 0, 0, 0, 0, 3.9900000000000002, 0
NKF4, 44141503, 0, 0, 0, 0.040000000000000001, 0, 0.00011473628499999999, 0, 0, 0, 16, 9087, 0, 0
NKF5, 44141503, 0, 0, 0, 0, 0.050000000000000003, 0.040000000000000001, 0, 0.050000000000000003, 0.14999999999999999, 0.0038148132199999998, 0.0030396250100000002, 0.0041642366000000002
NKF6, 44141503, 0.080000000000000002, 0.089999999999999997, 356.91000000000003, -0.023315545199999999, 0.0253396779, 0.000216027314, 0, -0.0179479923, 0.0194559339, 5.7237935799999998e-05, 0.02, 0.02, -0.38
NKF7, 44141503, 0, 0, 0, 0, 0, 0, 227, 0, -539, 0, 0, 0, 0
NKF8, 44141503, -0.01, 0.02, 0, 0, 0.01, 0, 0, 0, 0, 3.9900000000000002, 0
NKF9, 44141503, 0, 0, 0, 0.040000000000000001, 0, 0.000113413669, 0, 0, 0, 16, 9087, 0, 0
AHR2, 44141503, 0.12, 0.14000000000000001, 352.81999999999999, 584.089966, -35.363260799999999, 149.16523509999999
SIM, 44141503, 0, 0, 353, 584.09002699999996, -35.363260799999999, 149.16523509999999
POS, 44141503, -35.3632609, 149.16523530000001, 584.089966, 0.00029188676900000001, 0.00029188676900000001
RATE, 44141503, 0.0175049566, 0.0175049566, 0, 0.017649795900000001, 0.017649795900000001, 0, 0.42514064899999998, 0.42514064899999998, -1.4012984600000001e-45, 0, -0.143146515, 0
MOTB, 44141503, 1, 1, 0, 1
RCIN, 44141503, 1500, 1500, 1000, 1500, 1800, 1000, 1000, 1800, 0, 0, 0, 0, 0, 0
RCOU, 44141503, 1000, 1000, 1000, 1000, 0, 0, 0, 0, 0, 0, 0, 0, 0, 0
NTUN, 44141503, -0.207037896, 0.22853013899999999, -1.8103973900000001, 1.94361436, 0, 0, -2.3440799700000001, 2.5159382799999999, -0.32969921800000002, 0.205374047
VIBE, 44141503, 0.00567815779, 0.0058773448699999996, 0.00576801598, 0, 0, 0
CTRL, 44141503, 2.6469779599999998e-22, 2.6469779599999998e-22, 2.6469779599999998e-22, 2.6469779599999998e-22, 2.6469779599999998e-22
IMU, 44161495, 0.00077249912999999997, 0.00086494477000000005, 0.00074919132699999996, 0.0025590977199999999, 0.0013609488999999999, -9.8063669200000003, 0, 0, 0, 1, 1
IMU2, 44161495, 0.00049805810000000004, 0.00080179632600000002, 0.000722999976, 0.00098816771100000006, 7.3966133600000003e-05, -9.8066253700000008, 0, 0, 0, 1, 1
IMU, 44201479, 0.00085642142200000005, 0.00072521209899999997, 0.00082608091200000002, 0.00120285479, 0.00132638961, -9.8059415800000007, 0, 0, 0, 1, 1
IMU2, 44201479, 0.000748579565, 0.00079080293700000001, 0.00060604518499999995, 0.0017632555699999999, 0.000349765498, -9.8051128399999996, 0, 0, 0, 1, 1
CURR, 44241463, 12.5879774, 0, 0
MAG, 44241463, 215, 73, -539, 5, 13, -18, 0, 0, 0, 1, 44240630
MAG2, 44241463, 215, 73, -539, 5, 13, -18, 0, 0, 0, 1, 44240630
BARO, 44241463, 0, 94502.781199999998, 26.010000000000002, 0, 44241, 0
CTUN, 44241463, 0, 0, 0, 0.36000001399999998, 0.029326880400000001, 0.00028721903800000003, 0, 0, 0, 0, 0, 0
ATT, 44241463, 0.080000000000000002, 0.080000000000000002, 0.089999999999999997, 0.089999999999999997, 356.89999999999998, 356.91000000000003, 0, 0
NKF1, 44241463, 0.080000000000000002, 0.089999999999999997, 356.89999999999998, -0.023310186300000001, 0.025076190000000002, -7.5257754400000004e-05, 0, -0.0182428099, 0.019601171800000001, -0.00028721903800000003, 0.02, 0.02, -0.37
NKF2, 44241463, 0, 0, 0, 0, 0, 0, 227, 0, -539, 0, 0, 0, 0
NKF3, 44241463, -0.01, 0.02, 0, 0, 0.01, 0, 0, 0, 0, 3.98, 0
NKF4, 44241463, 0, 0, 0, 0.040000000000000001, 0, 0.00011620424599999999, 0, 0, 0, 16, 9087, 0, 0
NKF5, 44241463, 0, 0, 0, 0, 0.050000000000000003, 0.040000000000000001, 0, 0.050000000000000003, 0.14999999999999999, 0.0036327312699999999, 0.00102039101, 0.0015912725399999999
NKF6, 44241463, 0.080000000000000002, 0.089999999999999997, 356.89999999999998, -0.023181950699999999, 0.025301517900000001, 0.00019948602099999999, 0, -0.0181063879, 0.019643880400000001, 6.2057442800000001e-05, 0.02, 0.02, -0.37
NKF7, 44241463, 0, 0, 0, 0, 0, 0, 227, 0, -539, 0, 0, 0, 0
NKF8, 44241463, -0.01, 0.02, 0, 0, 0.01, 0, 0, 0, 0, 3.98, 0
NKF9, 44241463, 0, 0, 0, 0.040000000000000001, 0, 0.000114949013, 0, 0, 0, 16, 9087, 0, 0
AHR2, 44241463, 0.12, 0.14000000000000001, 352.81999999999999, 584.089966, -35.363260799999999, 149.16523509999999
SIM, 44241463, 0, 0, 353, 584.09002699999996, -35.363260799999999, 149.16523509999999
POS, 44241463, -35.3632609, 149.16523530000001, 584.089966, 0.00028721903800000003, 0.00028721903800000003
RATE, 44241463, 0.020092066400000001, 0.020092066400000001, 0, 0.015896802799999998, 0.015896802799999998, 0, 0.42183437899999998, 0.42183437899999998, -1.4012984600000001e-45, 0, 0.124454498, 0
MOTB, 44241463, 1, 1, 0, 1
RCIN, 44241463, 1500, 1500, 1000, 1500, 1800, 1000, 1000, 1800, 0, 0, 0, 0, 0, 0
RCOU, 44241463, 1000, 1000, 1000, 1000, 0, 0, 0, 0, 0, 0, 0, 0, 0, 0
NTUN, 44241463, -0.207037896, 0.22853013899999999, -1.8242809799999999, 1.9601172200000001, 0, 0, -2.3310186900000001, 2.5076189000000002, -0.32969921800000002, 0.205374047
VIBE, 44241463, 0.0060239089700000002, 0.0061011169999999997, 0.0059330910400000004, 0, 0, 0
CTRL, 44241463, 2.6469779599999998e-22, 2.6469779599999998e-22, 2.6469779599999998e-22, 2.6469779599999998e-22, 2.6469779599999998e-22
IMU, 44241463, 0.00073170760900000001, 0.00071748765200000005, 0.000767738791, 0.0021469302000000001, 0.000164788798, -9.8068685500000008, 0, 0, 0, 1, 1
IMU2, 44241463, 0.00080778141300000001, 0.00070483062900000002, 0.00074622803400000001, 0.0030562549400000001, 0.00338049768, -9.8070697800000008, 0, 0, 0, 1, 1
GPS, 44281447, 6, 431249400, 1948, 10, 1.21, -35.363260799999999, 149.16523509999999, 584.09000000000003, 0, 0, 0, 1
GPA, 44281447, 2, 0.20000000000000001, 0.20000000000000001, 0.040000000000000001, 1, 44281
IMU, 44281447, 0.00071223237299999995, 0.00069513695800000003, 0.00078287720700000001, 0.00026511660000000002, 0.0017258224500000001, -9.8040876400000005, 0, 0, 0, 1, 1
IMU2, 44281447, 0.00060721341299999998, 0.000725564663, 0.00077302835400000003, 0.0013624453, 0.0011164029099999999, -9.8053665199999998, 0, 0, 0, 1, 1
IMU, 44321431, 0.00083671911900000005, 0.00081032229399999995, 0.00075784977500000005, 0.00189093442, 0.0022631632199999999, -9.80529881, 0, 0, 0, 1, 1
IMU2, 44321431, 0.00066192808999999996, 0.00085084635100000005, 0.00068447639899999997, 0.00057791231700000001, 0.0011058705899999999, -9.8048648800000002, 0, 0, 0, 1, 1
CURR, 44341423, 12.5879774, 0, 0
MAG, 44341423, 215, 73, -539, 5, 13, -18, 0, 0, 0, 1, 44340590
MAG2, 44341423, 215, 73, -539, 5, 13, -18, 0, 0, 0, 1, 44340590
BARO, 44341423, 0, 94502.781199999998, 26.010000000000002, 0, 44341, 0
CTUN, 44341423, 0, 0, 0, 0.36000001399999998, 0.029326880400000001, 0.00028517376599999998, 0, 0, 0, 0, 0, 0
ATT, 44341423, 0.080000000000000002, 0.080000000000000002, 0.089999999999999997, 0.089999999999999997, 356.89999999999998, 356.91000000000003, 0, 0
NKF1, 44341423, 0.080000000000000002, 0.089999999999999997, 356.89999999999998, -0.023270709399999999, 0.0250834357, -3.2375042800000002e-05, 0, -0.018444519499999999, 0.019837388800000001, -0.00028517376599999998, 0.02, 0.02, -0.37
NKF2, 44341423, 0, 0, 0, 0, 0, 0, 227, 0, -539, 0, 0, 0, 0
NKF3, 44341423, -0.01, 0.02, 0, -0.01, 0.01, 0, 0, 0, 0, 3.9700000000000002, 0
NKF4, 44341423, 0, 0, 0, 0.040000000000000001, 0, 0.00011726554700000001, 0, 0, 0, 16, 9087, 0, 0
NKF5, 44341423, 0, 0, 0, 0, 0.050000000000000003, 0.040000000000000001, 0, 0.050000000000000003, 0.14999999999999999, 0.0040655364299999998, 0.0030088468899999998, 0.0042113815399999997
NKF6, 44341423, 0.080000000000000002, 0.089999999999999997, 356.89999999999998, -0.023174235599999999, 0.025303926300000001, 0.00019664834, 0, -0.018320307099999999, 0.0199046656, 6.6566113700000003e-05, 0.02, 0.02, -0.37
NKF7, 44341423, 0, 0, 0, 0, 0, 0, 227, 0, -539, 0, 0, 0, 0
NKF8, 44341423, -0.01, 0.02, 0, -0.01, 0.01, 0, 0, 0, 0, 3.9700000000000002, 0
NKF9, 44341423, 0, 0, 0, 0.040000000000000001, 0, 0.00011614869400000001, 0, 0, 0, 16, 9087, 0, 0
AHR2, 44341423, 0.12, 0.14000000000000001, 352.81, 584.089966, -35.363260799999999, 149.16523509999999
SIM, 44341423, 0, 0, 353, 584.09002699999996, -35.363260799999999, 149.16523509999999
POS, 44341423, -35.3632609, 149.16523530000001, 584.089966, 0.00028517376599999998, 0.00028517376599999998
RATE, 44341423, 0.020433874800000001, 0.020433874800000001, 0, 0.0137256533, 0.0137256533, 0, 0.41573104300000002, 0.41573104300000002, -1.4012984600000001e-45, 0, -0.010585784900000001, 0
MOTB, 44341423, 1, 1, 0, 1
RCIN, 44341423, 1500, 1500, 1000, 1500, 1800, 1000, 1000, 1800, 0, 0, 0, 0, 0, 0
RCOU, 44341423, 1000, 1000, 1000, 1000, 0, 0, 0, 0, 0, 0, 0, 0, 0, 0
NTUN, 44341423, -0.207037896, 0.22853013899999999, -1.8444518999999999, 1.9837389000000001, 0, 0, -2.32707095, 2.5083434599999999, -0.32969921800000002, 0.205374047
VIBE, 44341423, 0.0055542090000000001, 0.0057267867999999996, 0.0057220053899999998, 0, 0, 0
CTRL, 44341423, 2.6469779599999998e-22, 2.6469779599999998e-22, 2.6469779599999998e-22, 2.6469779599999998e-22, 2.6469779599999998e-22
IMU, 44361415, 0.00070494687000000002, 0.00078505987800000002, 0.00066639733299999997, 0.0010299174999999999, 0.00112547411, -9.8051939000000008, 0, 0, 0, 1, 1
IMU2, 44361415, 0.00079302111399999996, 0.00073285173900000005, 0.00063031981700000005, 0.00126384001, 0.00117868523, -9.8062457999999992, 0, 0, 0, 1, 1
IMU, 44401399, 0.00074354873500000001, 0.00079281115900000005, 0.00083162717100000001, 0.0013323733600000001, 0.00094412243900000002, -9.8061847699999998, 0, 0, 0, 1, 1
IMU2, 44401399, 0.00070922932400000003, 0.00073567917599999999, 0.00075469858699999998, 0.000187225538, 0.00174912415, -9.8061409000000008, 0, 0, 0, 1, 1
CURR, 44441383, 12.5879774, 0, 0
MAG, 44441383, 215, 73, -539, 5, 13, -18, 0, 0, 0, 1, 44440550
MAG2, 44441383, 215, 73, -539, 5, 13, -18, 0, 0, 0, 1, 44440550
BARO, 44441383, 0, 94502.781199999998, 26.010000000000002, 0, 44441, 0
CTUN, 44441383, 0, 0, 0, 0.36000001399999998, 0.029326880400000001, 0.000281756278, 0, 0, 0, 0, 0, 0
ATT, 44441383, 0.080000000000000002, 0.080000000000000002, 0.089999999999999997, 0.089999999999999997, 356.89999999999998, 356.91000000000003, 0, 0
NKF1, 44441383, 0.080000000000000002, 0.089999999999999997, 356.89999999999998, -0.023156214500000001, 0.024999929600000002, -0.000107673193, 0, -0.018513657199999999, 0.0199319944, -0.000281756278, 0.02, 0.02, -0.37
NKF2, 44441383, 0, 0, 0, 0, 0, 0, 227, 0, -539, 0, 0, 0, 0
NKF3, 44441383, -0.01, 0.02, 0, -0.01, 0.01, 0, 0, 0, 0, 3.9700000000000002, 0
NKF4, 44441383, 0, 0, 0, 0.040000000000000001, 0, 0.00011812735499999999, 0, 0, 0, 16, 9087, 0, 0
NKF5, 44441383, 0, 0, 0, 0, 0.050000000000000003, 0.040000000000000001, 0, 0.050000000000000003, 0.14999999999999999, 0.0038726492799999999, 0.00095658359400000001, 0.0015598508799999999
NKF6, 44441383, 0.080000000000000002, 0.089999999999999997, 356.89999999999998, -0.023107338700000001, 0.025186952200000001, 0.00025346476499999999, 0, -0.018403546900000001, 0.0200194884, 6.9105801200000004e-05, 0.02, 0.02, -0.37
NKF7, 44441383, 0, 0, 0, 0, 0, 0, 227, 0, -539, 0, 0, 0, 0
NKF8, 44441383, -0.01, 0.02, 0, -0.01, 0.01, 0, 0, 0, 0, 3.98, 0
NKF9, 44441383, 0, 0, 0, 0.040000000000000001, 0, 0.000117213902, 0, 0, 0, 16, 9087, 0, 0
AHR2, 44441383, 0.12, 0.14000000000000001, 352.81, 584.089966, -35.363260799999999, 149.16523509999999
SIM, 44441383, 0, 0, 353, 584.09002699999996, -35.363260799999999, 149.16523509999999
POS, 44441383, -35.3632609, 149.16523530000001, 584.089966, 0.000281756278, 0.000281756278
RATE, 44441383, 0.023433556800000001, 0.023433556800000001, 0, 0.021180415500000001, 0.021180415500000001, 0, 0.40485611599999999, 0.40485611599999999, -1.4012984600000001e-45, 0, 0.238037109, 0
MOTB, 44441383, 1, 1, 0, 1
RCIN, 44441383, 1500, 1500, 1000, 1500, 1800, 1000, 1000, 1800, 0, 0, 0, 0, 0, 0
RCOU, 44441383, 1000, 1000, 1000, 1000, 0, 0, 0, 0, 0, 0, 0, 0, 0, 0
NTUN, 44441383, -0.207037896, 0.22853013899999999, -1.85136569, 1.99319947, 0, 0, -2.3156213800000001, 2.4999928499999999, -0.32969921800000002, 0.205374047
