FMT, 128, 89, FMT, BBnNZ, Type,Length,Name,Format,Columns
FMT, 129, 31, PARM, QNf, TimeUS,Name,Value
FMT, 130, 50, GPS, QBIHBcLLeeEefB, TimeUS,Status,GMS,GWk,NSats,HDop,Lat,Lng,RAlt,Alt,Spd,GCrs,VZ,U
FMT, 131, 50, GPS2, QBIHBcLLeeEefB, TimeUS,Status,GMS,GWk,NSats,HDop,Lat,Lng,RAlt,Alt,Spd,GCrs,VZ,U
FMT, 194, 19, GPA, QCCCC, TimeUS,VDop,HAcc,VAcc,SAcc
FMT, 195, 19, GPA2, QCCCC, TimeUS,VDop,HAcc,VAcc,SAcc
FMT, 132, 49, IMU, QffffffIIfBB, TimeUS,GyrX,GyrY,GyrZ,AccX,AccY,AccZ,ErrG,ErrA,Temp,GyHlt,AcHlt
FMT, 133, 75, MSG, QZ, TimeUS,Message
FMT, 134, 39, RCIN, Qhhhhhhhhhhhhhh, TimeUS,C1,C2,C3,C4,C5,C6,C7,C8,C9,C10,C11,C12,C13,C14
FMT, 135, 35, RCOU, Qhhhhhhhhhhhh, TimeUS,Ch1,Ch2,Ch3,Ch4,Ch5,Ch6,Ch7,Ch8,Ch9,Ch10,Ch11,Ch12
FMT, 136, 15, RSSI, Qf, TimeUS,RXRSSI
FMT, 138, 25, BARO, Qffcf, TimeUS,Alt,Press,Temp,CRt
FMT, 139, 17, POWR, QCCH, TimeUS,Vcc,VServo,Flags
FMT, 146, 45, CMD, QHHHfffffff, TimeUS,CTot,CNum,CId,Prm1,Prm2,Prm3,Prm4,Lat,Lng,Alt
FMT, 147, 20, RAD, QBBBBBHH, TimeUS,RSSI,RemRSSI,TxBuf,Noise,RemNoise,RxErrors,Fixed
FMT, 149, 39, CAM, QIHLLeeccC, TimeUS,GPSTime,GPSWeek,Lat,Lng,Alt,RelAlt,Roll,Pitch,Yaw
FMT, 165, 29, ARSP, Qffcff, TimeUS,Airspeed,DiffPress,Temp,RawPress,Offset
FMT, 167, 25, CURR, QhhhHfh, TimeUS,Throttle,Volt,Curr,Vcc,CurrTot,Volt2
FMT, 166, 27, ATT, QccccCCCC, TimeUS,DesRoll,Roll,DesPitch,Pitch,DesYaw,Yaw,ErrRP,ErrYaw
FMT, 168, 30, MAG, QhhhhhhhhhB, TimeUS,MagX,MagY,MagZ,OfsX,OfsY,OfsZ,MOfsX,MOfsY,MOfsZ,Health
FMT, 171, 13, MODE, QMB, TimeUS,Mode,ModeNum
FMT, 196, 15, RFND, QCC, TimeUS,Dist1,Dist2
FMT, 137, 49, IMU2, QffffffIIfBB, TimeUS,GyrX,GyrY,GyrZ,AccX,AccY,AccZ,ErrG,ErrA,Temp,GyHlt,AcHlt
FMT, 150, 49, IMU3, QffffffIIfBB, TimeUS,GyrX,GyrY,GyrZ,AccX,AccY,AccZ,ErrG,ErrA,Temp,GyHlt,AcHlt
FMT, 140, 29, AHR2, QccCfLL, TimeUS,Roll,Pitch,Yaw,Alt,Lat,Lng
FMT, 182, 27, POS, QLLff, TimeUS,Lat,Lng,Alt,RelAlt
FMT, 141, 29, SIM, QccCfLL, TimeUS,Roll,Pitch,Yaw,Alt,Lat,Lng
FMT, 142, 47, EKF1, QccCffffffccc, TimeUS,Roll,Pitch,Yaw,VN,VE,VD,PN,PE,PD,GX,GY,GZ
FMT, 143, 30, EKF2, Qbbbcchhhhhh, TimeUS,Ratio,AZ1bias,AZ2bias,VWN,VWE,MN,ME,MD,MX,MY,MZ
FMT, 144, 31, EKF3, Qcccccchhhc, TimeUS,IVN,IVE,IVD,IPN,IPE,IPD,IMX,IMY,IMZ,IVT
FMT, 145, 31, EKF4, QcccccccbbBBH, TimeUS,SV,SP,SH,SMX,SMY,SMZ,SVT,OFN,EFE,FS,TS,SS
FMT, 151, 34, TERR, QBLLHffHH, TimeUS,Status,Lat,Lng,Spacing,TerrH,CHeight,Pending,Loaded
FMT, 152, 18, UBX1, QBHBBH, TimeUS,Instance,noisePerMS,jamInd,aPower,agcCnt
FMT, 153, 16, UBX2, QBbBbB, TimeUS,Instance,ofsI,magI,ofsQ,magQ
FMT, 154, 24, UBX3, QBfff, TimeUS,Instance,hAcc,vAcc,sAcc
FMT, 172, 42, GRAW, QIHBBddfBbB, TimeUS,WkMS,Week,numSV,sv,cpMes,prMes,doMes,mesQI,cno,lli
FMT, 173, 24, GRXH, QdHbBB, TimeUS,rcvTime,week,leapS,numMeas,recStat
FMT, 174, 41, GRXS, QddfBBBHBBBBB, TimeUS,prMes,cpMes,doMes,gnss,sv,freq,lock,cno,prD,cpD,doD,trk
FMT, 175, 63, SBFE, QIHBBdddfffff, TimeUS,TOW,WN,Mode,Err,Lat,Long,Height,Undul,Vn,Ve,Vu,COG
FMT, 155, 19, ESC1, Qcccc, TimeUS,RPM,Volt,Curr,Temp
FMT, 156, 19, ESC2, Qcccc, TimeUS,RPM,Volt,Curr,Temp
FMT, 157, 19, ESC3, Qcccc, TimeUS,RPM,Volt,Curr,Temp
FMT, 158, 19, ESC4, Qcccc, TimeUS,RPM,Volt,Curr,Temp
FMT, 159, 19, ESC5, Qcccc, TimeUS,RPM,Volt,Curr,Temp
FMT, 160, 19, ESC6, Qcccc, TimeUS,RPM,Volt,Curr,Temp
FMT, 161, 19, ESC7, Qcccc, TimeUS,RPM,Volt,Curr,Temp
FMT, 162, 19, ESC8, Qcccc, TimeUS,RPM,Volt,Curr,Temp
FMT, 163, 28, EKF5, QBhhhcccCC, TimeUS,normInnov,FIX,FIY,AFI,HAGL,offset,RI,meaRng,errHAGL
FMT, 169, 30, MAG2, QhhhhhhhhhB, TimeUS,MagX,MagY,MagZ,OfsX,OfsY,OfsZ,MOfsX,MOfsY,MOfsZ,Health
FMT, 170, 30, MAG3, QhhhhhhhhhB, TimeUS,MagX,MagY,MagZ,OfsX,OfsY,OfsZ,MOfsX,MOfsY,MOfsZ,Health
FMT, 176, 31, ACC1, QQfff, TimeUS,SampleUS,AccX,AccY,AccZ
FMT, 177, 31, ACC2, QQfff, TimeUS,SampleUS,AccX,AccY,AccZ
FMT, 178, 31, ACC3, QQfff, TimeUS,SampleUS,AccX,AccY,AccZ
FMT, 179, 31, GYR1, QQfff, TimeUS,SampleUS,GyrX,GyrY,GyrZ
FMT, 180, 31, GYR2, QQfff, TimeUS,SampleUS,GyrX,GyrY,GyrZ
FMT, 181, 31, GYR3, QQfff, TimeUS,SampleUS,GyrX,GyrY,GyrZ
FMT, 183, 35, PIDR, Qffffff, TimeUS,Des,P,I,D,FF,AFF
FMT, 184, 35, PIDP, Qffffff, TimeUS,Des,P,I,D,FF,AFF
FMT, 185, 35, PIDY, Qffffff, TimeUS,Des,P,I,D,FF,AFF
FMT, 186, 35, PIDA, Qffffff, TimeUS,Des,P,I,D,FF,AFF
FMT, 187, 35, PIDS, Qffffff, TimeUS,Des,P,I,D,FF,AFF
FMT, 164, 25, BAR2, Qffcf, TimeUS,Alt,Press,Temp,CRt
FMT, 197, 25, BAR3, Qffcf, TimeUS,Alt,Press,Temp,CRt
FMT, 188, 35, VIBE, QfffIII, TimeUS,VibeX,VibeY,VibeZ,Clip0,Clip1,Clip2
FMT, 189, 43, IMT, Qffffffff, TimeUS,DelT,DelvT,DelAX,DelAY,DelAZ,DelVX,DelVY,DelVZ
FMT, 190, 43, IMT2, Qffffffff, TimeUS,DelT,DelvT,DelAX,DelAY,DelAZ,DelVX,DelVY,DelVZ
FMT, 191, 43, IMT3, Qffffffff, TimeUS,DelT,DelvT,DelAX,DelAY,DelAZ,DelVX,DelVY,DelVZ
FMT, 192, 24, ORGN, QBLLe, TimeUS,Type,Lat,Lng,Alt
FMT, 193, 19, RPM, Qff, TimeUS,rpm1,rpm2
FMT, 2, 30, PM, QIHIhhhBH, TimeUS,LTime,MLC,gDt,GDx,GDy,GDz,I2CErr,INSErr
FMT, 3, 14, STRT, QBH, TimeUS,SType,CTot
FMT, 0, 27, CTUN, Qcccchhf, TimeUS,NavRoll,Roll,NavPitch,Pitch,ThrOut,RdrOut,AccY
FMT, 1, 33, NTUN, QCfccccfI, TimeUS,Yaw,WpDist,TargBrg,NavBrg,AltErr,Arspd,Alt,GSpdCM
FMT, 8, 31, SONR, QHfffBBf, TimeUS,DistCM,Volt,BaroAlt,GSpd,Thr,Cnt,Corr
FMT, 9, 14, ARM, QBH, TimeUS,ArmState,ArmChecks
FMT, 148, 27, ATRP, QBBcfff, TimeUS,Type,State,Servo,Demanded,Achieved,P
FMT, 10, 20, STAT, QBfBBBB, TimeUS,isFlying,isFlyProb,Armed,Safety,Crash,Still
FMT, 11, 28, OF, QBffff, TimeUS,Qual,flowX,flowY,bodyX,bodyY
FMT, 6, 59, TECS, Qffffffffffff, TimeUS,h,dh,h_dem,dh_dem,sp_dem,sp,dsp,ith,iph,th,ph,dsp_dem
ATT, 241513978, 7.32, -5.14, -1.97, -4.19, 0.00, 289.67, 0.13, 0.01
PIDR, 241513983, 50.36666, 39.99754, 0, 71.05363, 0, 0
PIDP, 241513987, 0.02832007, 0.02027195, 0, -26.30661, 0, 0
PIDY, 241513991, 0, 0, 0, 0, 0, 0
PIDS, 241513995, 0, 0, 0, 0, 0, 0
EKF1, 241514013, -4.53, -4.32, 288.15, 0.3367734, 0.07963549, 0.1340719, -0.3206893, -0.712527, 0.2165132, -0.04, 0.08, -0.14
EKF2, 241514028, 56, 8, 18, 0.00, 0.00, 304, 0, 237, 0, 0, 0
EKF3, 241514033, 0.42, 0.11, 0.04, 0.32, 0.07, 0.17, 0, 1, 3, 0.00
EKF4, 241514057, 0.10, 0.02, 0.01, 0.00, 0.01, 0.02, 0.00, 0, 0, 0, 16, 9023
AHR2, 241514144, -4.53, -4.32, 288.15, 47.18, 16.5427342, -88.6821218
POS, 241514158, 16.542731, -88.6821224, 47.44, 0
IMU, 241514162, -0.01169645, 0.01566461, 0.1083729, -0.56918, 0.6619923, -10.03768, 0, 0, 45.50415, 1, 1
IMU2, 241514162, -0.01327522, 0.008697219, 0.1268281, -0.6319984, 0.8028834, -9.855886, 0, 0, 48.375, 1, 1
IMT, 241514173, 0.020242, 0.02, -0.0002230285, 0.0003011586, 0.002189673, -0.01143095, 0.01357226, -0.2007747
IMT2, 241514173, 0.020242, 0.02, -0.0002492655, 0.0001975898, 0.002542713, -0.01241012, 0.01710128, -0.1976925
MAG, 241514378, 103, 276, 245, -82, 2, -2, 0, 0, 0, 1
MAG2, 241514382, -42, 287, 290, -179, 95, -279, 0, 0, 0, 1
ARSP, 241514415, 1.826402, 1.409355, 26.77, -1.409355, 113.9366
BARO, 241514452, -0.06599949, 101833.8, 49.11, -0.1045049
SONR, 241514634, 0, 0, -0.06599949, 0.13, 0, 0, 0
RFND, 241514639, 0.00, 0.00
CTUN, 241514679, 7.32, -5.14, -1.97, -4.19, 0, 4414, 0.6619923
NTUN, 241514684, 289.67, 1204.494, 36.24, 36.24, 48.95, 2.35, -0.06599949, 13
RCIN, 241514690, 1517, 1489, 993, 1997, 1997, 1516, 1997, 1858, 0, 0, 0, 0, 0, 0
RCOU, 241514757, 1517, 1488, 993, 1997, 1997, 1561, 1997, 1002, 1500, 1500, 1500, 1500
VIBE, 241514768, 0.0587934, 0.1077146, 0.1249357, 0, 0, 0
ATT, 241734214, 7.32, -5.09, -1.97, -4.24, 0.00, 291.41, 0.11, 0.03
PIDR, 241734219, 50.36666, 39.99754, 0, 71.05363, 0, 0
PIDP, 241734223, 0.02832007, 0.02027195, 0, -26.30661, 0, 0
PIDY, 241734227, 0, 0, 0, 0, 0, 0
PIDS, 241734231, 0, 0, 0, 0, 0, 0
EKF1, 241734284, -4.28, -4.23, 289.96, 0.3307917, 0.1378976, 0.08918462, -0.3230182, -0.7067387, 0.2069242, -0.04, 0.08, -0.14
EKF2, 241734291, 53, 8, 18, 0.00, 0.00, 304, 0, 237, 0, 0, 0
EKF3, 241734295, 0.30, 0.02, 0.17, 0.35, 0.09, 0.12, 0, -2, 6, 0.00
EKF4, 241734319, 0.08, 0.02, 0.01, 0.00, 0.01, 0.04, 0.00, 0, 0, 0, 16, 9023
AHR2, 241734422, -4.28, -4.23, 289.96, 47.19, 16.5427341, -88.6821218
POS, 241734437, 16.542731, -88.6821227, 47.4, 0
IMU, 241734441, 0.1027292, 0.006087028, 0.1180401, -0.5476716, 0.9854035, -9.760103, 0, 0, 45.41551, 1, 1
IMU2, 241734441, 0.1194685, 0.003672728, 0.1422568, -0.5734425, 1.093693, -9.693676, 0, 0, 48.375, 1, 1
IMT, 241734451, 0.020321, 0.02, 0.002105396, 0.0001315417, 0.002362638, -0.01082616, 0.01965247, -0.1951593
IMT2, 241734451, 0.020321, 0.02, 0.00254555, 6.771939E-05, 0.003014417, -0.01139286, 0.02151106, -0.1933944
SONR, 241734614, 0, 0, -0.08799931, 0.07, 0, 0, 0
RFND, 241734619, 0.00, 0.00
ATT, 241774079, 7.32, -4.74, -1.97, -4.18, 0.00, 291.66, 0.11, 0.03
PIDR, 241774084, 50.36666, 39.99754, 0, 71.05363, 0, 0
PIDP, 241774088, 0.02832007, 0.02027195, 0, -26.30661, 0, 0
PIDY, 241774092, 0, 0, 0, 0, 0, 0
PIDS, 241774096, 0, 0, 0, 0, 0, 0
EKF1, 241774113, -3.96, -4.19, 290.23, 0.3306685, 0.1521323, 0.08876567, -0.3232001, -0.7039533, 0.204558, -0.04, 0.08, -0.14
EKF2, 241774120, 53, 8, 18, 0.00, 0.00, 304, 0, 237, 0, 0, 0
EKF3, 241774125, 0.30, 0.02, 0.17, 0.35, 0.09, 0.12, 1, -2, 5, 0.00
EKF4, 241774148, 0.08, 0.02, 0.01, 0.01, 0.01, 0.03, 0.00, 0, 0, 0, 16, 9023
AHR2, 241774171, -3.96, -4.19, 290.23, 47.19, 16.5427341, -88.6821217
POS, 241774186, 16.542731, -88.6821227, 47.4, 0
IMU, 241774190, 0.1584131, 0.02276224, 0.1088695, -0.5318373, 0.63477, -9.538719, 0, 0, 45.41551, 1, 1
IMU2, 241774190, 0.1745778, 0.0146979, 0.1398619, -0.7028269, 0.79882, -9.451582, 0, 0, 48.375, 1, 1
IMT, 241774239, 0.02008, 0.02, 0.003162164, 0.0004794921, 0.002158858, -0.01059096, 0.01248498, -0.1907075
IMT2, 241774239, 0.02008, 0.019375, 0.003233217, 0.0002858746, 0.002539735, -0.01360313, 0.01493149, -0.1839428
SONR, 241774455, 0, 0, -0.08799931, 0.07, 0, 0, 0
RFND, 241774460, 0.00, 0.00
MSG, 241777091, ArduPlane V3.4.0 (3aa9eb0c)
MSG, 241777100, PX4: c4f39028 NuttX: d48fa307
MSG, 241777143, PX4v2 00300025 3432470B 38383538
MSG, 241777153, New mission
CMD, 241777164, 34, 0, 16, 0, 0, 0, 0, 16.54273, -88.68213, 47.49
CMD, 241777247, 34, 1, 206, 50, 0, 0, 0, 0, 0, 0
CMD, 241777260, 34, 2, 16, 0, 0, 0, 0, 16.5454, -88.70793, 250
CMD, 241777272, 34, 3, 16, 0, 0, 0, 0, 16.54588, -88.68208, 250
ATT, 241793678, 7.32, -4.55, -1.97, -4.13, 0.00, 291.77, 0.11, 0.03
PIDR, 241793683, 50.36666, 39.99754, 0, 71.05363, 0, 0
PIDP, 241793688, 0.02832007, 0.02027195, 0, -26.30661, 0, 0
PIDY, 241793692, 0, 0, 0, 0, 0, 0
PIDS, 241793696, 0, 0, 0, 0, 0, 0
EKF1, 241793713, -3.78, -4.14, 290.35, 0.3289916, 0.1550364, 0.09089724, -0.3233033, -0.7023799, 0.203405, -0.04, 0.08, -0.14
EKF2, 241793720, 53, 8, 18, 0.00, 0.00, 304, 0, 237, 0, 0, 0
EKF3, 241793725, 0.30, 0.02, 0.17, 0.35, 0.09, 0.12, 2, -1, 4, 0.00
EKF4, 241793785, 0.08, 0.02, 0.01, 0.01, 0.01, 0.02, 0.00, 0, 0, 0, 16, 9023
AHR2, 241793808, -3.78, -4.14, 290.35, 47.19, 16.5427341, -88.6821217
POS, 241793823, 16.542731, -88.6821227, 47.4, 0
IMU, 241793827, 0.1627889, 0.03304417, 0.09842372, -0.4392746, 0.5759403, -9.481003, 0, 0, 45.54848, 1, 1
IMU2, 241793827, 0.1736068, 0.03416078, 0.1243878, -0.4226031, 0.6547016, -9.358126, 0, 0, 48.375, 1, 1
IMT, 241793837, 0.019907, 0.019, 0.003094867, 0.0006356369, 0.001848178, -0.008055769, 0.0108476, -0.1798396
IMT2, 241793837, 0.019907, 0.019375, 0.003419082, 0.0007513773, 0.002446349, -0.00818074, 0.01242688, -0.1816496
SONR, 241793997, 0, 0, -0.08799931, 0.07, 0, 0, 0
RFND, 241794001, 0.00, 0.00
CMD, 241794057, 34, 4, 16, 0, 0, 0, 0, 16.5468, -88.68207, 250
CMD, 241794070, 34, 5, 16, 0, 0, 0, 0, 16.54631, -88.70831, 250
CMD, 241794083, 34, 6, 16, 0, 0, 0, 0, 16.54723, -88.70866, 250
CMD, 241794096, 34, 7, 16, 0, 0, 0, 0, 16.54772, -88.68207, 250
CMD, 241794109, 34, 8, 16, 0, 0, 0, 0, 16.54864, -88.68206, 250
CMD, 241794122, 34, 9, 16, 0, 0, 0, 0, 16.54814, -88.70904, 250
CMD, 241794135, 34, 10, 16, 0, 0, 0, 0, 16.54906, -88.7094, 250
CMD, 241794147, 34, 11, 16, 0, 0, 0, 0, 16.54956, -88.68205, 250
CMD, 241794161, 34, 12, 16, 0, 0, 0, 0, 16.55049, -88.68205, 250
CMD, 241794202, 34, 13, 16, 0, 0, 0, 0, 16.54997, -88.70977, 250
CMD, 241794215, 34, 14, 16, 0, 0, 0, 0, 16.55089, -88.71014, 250
CMD, 241794228, 34, 15, 16, 0, 0, 0, 0, 16.55141, -88.68205, 250
CMD, 241794241, 34, 16, 16, 0, 0, 0, 0, 16.55233, -88.68204, 250
CMD, 241794254, 34, 17, 16, 0, 0, 0, 0, 16.5518, -88.71051, 250
CMD, 241794267, 34, 18, 16, 0, 0, 0, 0, 16.55272, -88.71088, 250
CMD, 241794280, 34, 19, 16, 0, 0, 0, 0, 16.55325, -88.68203, 250
CMD, 241794293, 34, 20, 16, 0, 0, 0, 0, 16.55417, -88.68202, 250
CMD, 241794501, 34, 21, 16, 0, 0, 0, 0, 16.55363, -88.71124, 250
CMD, 241794518, 34, 22, 16, 0, 0, 0, 0, 16.55455, -88.71162, 250
CMD, 241794531, 34, 23, 16, 0, 0, 0, 0, 16.5551, -88.68202, 250
CMD, 241794544, 34, 24, 16, 0, 0, 0, 0, 16.55602, -88.68201, 250
CMD, 241794557, 34, 25, 16, 0, 0, 0, 0, 16.55546, -88.71198, 250
CMD, 241794570, 34, 26, 16, 0, 0, 0, 0, 16.55638, -88.71236, 250
CMD, 241794583, 34, 27, 16, 0, 0, 0, 0, 16.55694, -88.68201, 250
CMD, 241794636, 34, 28, 16, 0, 0, 0, 0, 16.55787, -88.682, 250
CMD, 241794649, 34, 29, 16, 0, 0, 0, 0, 16.55729, -88.71272, 250
CMD, 241794663, 34, 30, 16, 0, 0, 0, 0, 16.55821, -88.71309, 250
CMD, 241794675, 34, 31, 16, 0, 0, 0, 0, 16.55878, -88.682, 250
CMD, 241794688, 34, 32, 16, 0, 0, 0, 0, 16.54456, -88.68215, 175
CMD, 241794976, 34, 33, 206, 0, 0, 0, 0, 0, 0, 0
STRT, 241794982, 5, 34
MODE, 241794985, Manual, 0
ATT, 241813773, 7.32, -4.33, -1.97, -4.06, 0.00, 291.88, 0.11, 0.03
PIDR, 241813778, 50.36666, 39.99754, 0, 71.05363, 0, 0
PIDP, 241813782, 0.02832007, 0.02027195, 0, -26.30661, 0, 0
PIDY, 241813786, 0, 0, 0, 0, 0, 0
PIDS, 241813790, 0, 0, 0, 0, 0, 0
EKF1, 241813808, -3.57, -4.08, 290.48, 0.3311508, 0.1588769, 0.09351452, -0.3233504, -0.7007101, 0.2023157, -0.04, 0.08, -0.14
EKF2, 241813857, 53, 8, 18, 0.00, 0.00, 304, 0, 237, 0, 0, 0
EKF3, 241813863, 0.30, 0.02, 0.17, 0.35, 0.09, 0.12, 3, -1, 3, 0.00
EKF4, 241813887, 0.08, 0.02, 0.01, 0.02, 0.00, 0.02, 0.00, 0, 0, 0, 16, 9023
AHR2, 241813910, -3.57, -4.08, 290.48, 47.19, 16.5427341, -88.6821217
POS, 241813925, 16.542731, -88.6821227, 47.4, 0
IMU, 241813929, 0.1692804, 0.04883828, 0.09059563, -0.3594497, 0.666532, -9.485044, 0, 0, 45.41551, 1, 1
IMU2, 241813929, 0.1850454, 0.04620382, 0.1163495, -0.4205274, 0.7695193, -9.278494, 0, 0, 48.375, 1, 1
IMT, 241813940, 0.020085, 0.021, 0.003556167, 0.001045896, 0.001908197, -0.00752465, 0.01442279, -0.199545
IMT2, 241813940, 0.020085, 0.019375, 0.003915267, 0.0009726789, 0.002454921, -0.007971836, 0.01618612, -0.1802719
MAG, 241814188, 111, 278, 241, -82, 2, -2, 0, 0, 0, 1
MAG2, 241814192, -17, 270, 267, -179, 95, -279, 0, 0, 0, 1
ARSP, 241814224, 2.141703, 1.937965, 26.75, 1.937965, 113.9366
BARO, 241814260, -0.1484988, 101834.7, 49.11, -0.05005929
SONR, 241814377, 0, 0, -0.1484988, 0.07, 0, 0, 0
RFND, 241814382, 0.00, 0.00
CTUN, 241814462, 7.32, -4.33, -1.97, -4.06, 0, 4414, 0.666532
NTUN, 241814467, 291.88, 1204.513, 36.24, 36.24, 48.99, 2.38, -0.1484988, 7
RCIN, 241814473, 1516, 1489, 993, 1997, 1997, 1516, 1998, 1857, 0, 0, 0, 0, 0, 0
RCOU, 241814540, 1517, 1488, 993, 1997, 1997, 1561, 1997, 1002, 1500, 1500, 1500, 1500
VIBE, 241814551, 0.06717055, 0.1162004, 0.1046476, 0, 0, 0
ATT, 241834242, 7.32, -4.10, -1.97, -3.98, 0.00, 291.98, 0.11, 0.03
PIDR, 241834247, 50.36666, 39.99754, 0, 71.05363, 0, 0
PIDP, 241834251, 0.02832007, 0.02027195, 0, -26.30661, 0, 0
PIDY, 241834255, 0, 0, 0, 0, 0, 0
PIDS, 241834260, 0, 0, 0, 0, 0, 0
EKF1, 241834277, -3.36, -4.01, 290.60, 0.3339988, 0.1615145, 0.09488726, -0.3232324, -0.6989359, 0.202465, -0.04, 0.08, -0.14
EKF2, 241834284, 53, 8, 18, 0.00, 0.00, 304, 0, 237, 0, 0, 0
EKF3, 241834289, 0.30, 0.02, 0.17, 0.35, 0.09, 0.05, 1, -2, 4, 0.00
EKF4, 241834313, 0.08, 0.02, 0.00, 0.00, 0.01, 0.02, 0.00, 0, 0, 0, 16, 9023
AHR2, 241834391, -3.36, -4.01, 290.60, 47.19, 16.5427341, -88.6821217
POS, 241834405, 16.542731, -88.6821227, 47.34, 0
IMU, 241834410, 0.1826857, 0.06218823, 0.0929206, -0.2548531, 0.6720904, -9.552361, 0, 0, 45.50415, 1, 1
IMU2, 241834410, 0.2017134, 0.0602281, 0.1204759, -0.3911036, 0.8819568, -9.424541, 0, 0, 48.375, 1, 1
IMT, 241834499, 0.020359, 0.02, 0.003681534, 0.001251482, 0.001874172, -0.004787856, 0.01315738, -0.1910514
IMT2, 241834499, 0.020359, 0.019375, 0.004007481, 0.00118866, 0.002398056, -0.007445038, 0.01627441, -0.1829083
GPS, 241834644, 3, 232402800, 1889, 13, 0.71, 16.5427311, -88.6821227, -0.09, 47.45, 0.17, 123.77, 0, 1
GPA, 241834648, 1.09, 1.59, 2.66, 0.56
SONR, 241834804, 0, 0, -0.1484988, 0.17, 0, 0, 0
RFND, 241834809, 0.00, 0.00
ATT, 241854858, 7.32, -3.88, -1.97, -3.90, 0.00, 292.09, 0.09, 0.03
PIDR, 241854863, 50.36666, 39.99754, 0, 71.05363, 0, 0
PIDP, 241854868, 0.02832007, 0.02027195, 0, -26.30661, 0, 0
PIDY, 241854872, 0, 0, 0, 0, 0, 0
PIDS, 241854876, 0, 0, 0, 0, 0, 0
EKF1, 241854898, -3.15, -3.93, 290.73, 0.3345699, 0.1636486, 0.0976573, -0.3228317, -0.6967322, 0.2029095, -0.04, 0.08, -0.14
EKF2, 241854905, 51, 8, 18, 0.00, 0.00, 304, 0, 237, 0, 0, 0
EKF3, 241854910, 0.27, -0.03, 0.10, 0.34, 0.09, 0.05, 1, -2, 3, 0.00
EKF4, 241855062, 0.06, 0.02, 0.00, 0.00, 0.01, 0.02, 0.00, 0, 0, 0, 16, 9023
AHR2, 241855085, -3.15, -3.93, 290.73, 47.19, 16.5427341, -88.6821217
POS, 241855100, 16.542731, -88.6821225, 47.34, 0
IMU, 241855105, 0.1857587, 0.07286976, 0.1018817, -0.2106541, 0.5281576, -9.474108, 0, 0, 45.41551, 1, 1
IMU2, 241855105, 0.2007735, 0.06614712, 0.1310213, -0.3290571, 0.6366601, -9.459697, 0, 0, 48.5, 1, 1
IMT, 241855187, 0.019695, 0.02, 0.003689495, 0.001470131, 0.002054094, -0.004423062, 0.01046778, -0.1891482
IMT2, 241855187, 0.019695, 0.019375, 0.003623001, 0.001260774, 0.002455424, -0.00738146, 0.01156258, -0.1833569
SONR, 241855362, 0, 0, -0.1484988, 0.17, 0, 0, 0
RFND, 241855367, 0.00, 0.00
ATT, 241874200, 7.32, -3.67, -1.97, -3.79, 0.00, 292.22, 0.09, 0.03
PIDR, 241874205, 50.36666, 39.99754, 0, 71.05363, 0, 0
PIDP, 241874210, 0.02832007, 0.02027195, 0, -26.30661, 0, 0
PIDY, 241874214, 0, 0, 0, 0, 0, 0
PIDS, 241874218, 0, 0, 0, 0, 0, 0
EKF1, 241874235, -2.94, -3.83, 290.88, 0.3361253, 0.1663122, 0.1003106, -0.322213, -0.6943807, 0.2034675, -0.04, 0.08, -0.14
EKF2, 241874242, 51, 8, 18, 0.00, 0.00, 304, 0, 237, 0, 0, 0
EKF3, 241874247, 0.27, -0.03, 0.10, 0.34, 0.09, 0.05, 1, -1, 2, 0.00
EKF4, 241874271, 0.06, 0.02, 0.00, 0.01, 0.00, 0.01, 0.00, 0, 0, 0, 16, 9023
AHR2, 241874294, -2.94, -3.83, 290.88, 47.19, 16.5427342, -88.6821217
POS, 241874309, 16.542731, -88.6821225, 47.34, 0
IMU, 241874370, 0.1762609, 0.08106017, 0.1081347, -0.2167173, 0.4789594, -9.520555, 0, 0, 45.50415, 1, 1
IMU2, 241874370, 0.1888301, 0.0822554, 0.1337357, -0.3738149, 0.6509674, -9.373741, 0, 0, 48.5, 1, 1
IMT, 241874381, 0.020301, 0.02, 0.003520843, 0.001629191, 0.002164224, -0.004389463, 0.009571245, -0.190764
IMT2, 241874381, 0.020301, 0.01875, 0.003981233, 0.001720015, 0.002829459, -0.006707964, 0.01317062, -0.1756767
SONR, 241874556, 0, 0, -0.1484988, 0.17, 0, 0, 0
RFND, 241874561, 0.00, 0.00
ATT, 241892305, 7.32, -3.49, -1.97, -3.68, 0.00, 292.35, 0.09, 0.03
PIDR, 241892347, 50.36666, 39.99754, 0, 71.05363, 0, 0
PIDP, 241892352, 0.02832007, 0.02027195, 0, -26.30661, 0, 0
PIDY, 241892356, 0, 0, 0, 0, 0, 0
PIDS, 241892360, 0, 0, 0, 0, 0, 0
EKF1, 241892378, -2.77, -3.73, 291.02, 0.3378045, 0.1685164, 0.1037856, -0.3217343, -0.6920653, 0.2040354, -0.04, 0.08, -0.14
EKF2, 241892384, 51, 8, 18, 0.00, 0.00, 304, 0, 237, 0, 0, 0
EKF3, 241892389, 0.27, -0.03, 0.10, 0.34, 0.09, 0.05, 1, -1, 2, 0.00
EKF4, 241892449, 0.06, 0.02, 0.00, 0.01, 0.00, 0.01, 0.00, 0, 0, 0, 16, 9023
AHR2, 241892472, -2.77, -3.73, 291.02, 47.19, 16.5427342, -88.6821216
POS, 241892487, 16.542731, -88.6821225, 47.34, 0
IMU, 241892492, 0.161469, 0.08949266, 0.1139728, -0.2307748, 0.473, -9.482368, 0, 0, 45.41551, 1, 1
IMU2, 241892492, 0.173923, 0.086833, 0.1451764, -0.2889543, 0.6374828, -9.373304, 0, 0, 48.5, 1, 1
IMT, 241892502, 0.019791, 0.02, 0.003198912, 0.001800534, 0.002284485, -0.004480661, 0.00943295, -0.1893508
IMT2, 241892502, 0.019791, 0.019375, 0.003147984, 0.001610376, 0.002712626, -0.005033575, 0.01215272, -0.1817229
SONR, 241892621, 0, 0, -0.1484988, 0.17, 0, 0, 0
RFND, 241892626, 0.00, 0.00
CURR, 241892635, 0, 1624, 0, 5138, 0.3830746, 0
POWR, 241892639, 5.13, 5.20, 3
TERR, 241892896, 2, 16.542731, -88.6821225, 100, 62.19793, -0.1515846, 0, 448
STAT, 241892917, 0, 0, 1, 2, 0, 0
STAT, 241893250, 0, 0, 1, 2, 0, 0
ATT, 241913803, 7.32, -3.33, -1.97, -3.56, 0.00, 292.49, 0.09, 0.03
PIDR, 241913808, 50.36666, 39.99754, 0, 71.05363, 0, 0
PIDP, 241913812, 0.02832007, 0.02027195, 0, -26.30661, 0, 0
PIDY, 241913816, 0, 0, 0, 0, 0, 0
PIDS, 241913820, 0, 0, 0, 0, 0, 0
EKF1, 241913837, -2.61, -3.61, 291.17, 0.3393007, 0.1705523, 0.1073245, -0.321243, -0.6897092, 0.204671, -0.04, 0.08, -0.14
EKF2, 241913844, 51, 8, 18, 0.00, 0.00, 304, 0, 237, 0, 0, 0
EKF3, 241913849, 0.27, -0.03, 0.10, 0.34, 0.09, 0.05, 2, 0, 1, 0.00
EKF4, 241913876, 0.06, 0.02, 0.00, 0.01, 0.00, 0.00, 0.00, 0, 0, 0, 16, 9023
AHR2, 241913899, -2.61, -3.61, 291.17, 47.19, 16.5427342, -88.6821216
POS, 241913914, 16.542731, -88.6821225, 47.34, 0
IMU, 241913918, 0.1421825, 0.09741423, 0.1218742, -0.1742287, 0.4306678, -9.4542, 0, 0, 45.50415, 1, 1
IMU2, 241913918, 0.1513051, 0.09861216, 0.1474926, -0.2632977, 0.6045657, -9.373823, 0, 0, 48.375, 1, 1
IMT, 241913928, 0.019778, 0.02, 0.002826973, 0.001953798, 0.002448886, -0.003280679, 0.008426734, -0.1892754
IMT2, 241913928, 0.019778, 0.019375, 0.00294726, 0.00199306, 0.002910197, -0.005278808, 0.01169734, -0.181764
MAG, 241914126, 111, 282, 237, -82, 2, -2, 0, 0, 0, 1
MAG2, 241914131, -21, 286, 273, -179, 95, -279, 0, 0, 0, 1
ARSP, 241914163, 2.449282, 2.534576, 26.75, 2.534576, 113.9366
BARO, 241914198, -0.1979985, 101835.3, 49.12, -0.1990477
SONR, 241914279, 0, 0, -0.1979985, 0.17, 0, 0, 0
RFND, 241914284, 0.00, 0.00
CTUN, 241914320, 7.32, -3.33, -1.97, -3.56, 0, 4414, 0.4306678
NTUN, 241914392, 292.49, 1204.5, 36.24, 36.24, 49.05, 2.40, -0.1979985, 17
RCIN, 241914398, 1517, 1488, 993, 1997, 1997, 1517, 1997, 1857, 0, 0, 0, 0, 0, 0
RCOU, 241914581, 1516, 1489, 993, 1997, 1997, 1560, 1997, 1002, 1500, 1500, 1500, 1500
VIBE, 241914598, 0.07617135, 0.09616193, 0.07914841, 0, 0, 0
ATT, 241934054, 7.32, -3.19, -1.97, -3.44, 0.00, 292.64, 0.09, 0.03
PIDR, 241934060, 50.36666, 39.99754, 0, 71.05363, 0, 0
PIDP, 241934064, 0.02832007, 0.02027195, 0, -26.30661, 0, 0
PIDY, 241934068, 0, 0, 0, 0, 0, 0
PIDS, 241934072, 0, 0, 0, 0, 0, 0
EKF1, 241934090, -2.47, -3.49, 291.34, 0.3395321, 0.1700749, 0.1097509, -0.3206182, -0.6872998, 0.2063131, -0.04, 0.08, -0.14
EKF2, 241934103, 51, 8, 18, 0.00, 0.00, 304, 0, 237, 0, 0, 0
EKF3, 241934108, 0.27, -0.03, 0.10, 0.34, 0.09, 0.00, 1, -3, 4, 0.00
EKF4, 241934133, 0.06, 0.02, 0.00, 0.01, 0.02, 0.03, 0.00, 0, 0, 0, 16, 9023
AHR2, 241934156, -2.47, -3.49, 291.34, 47.19, 16.5427342, -88.6821216
POS, 241934171, 16.542731, -88.6821225, 47.29, 0
IMU, 241934175, 0.1200068, 0.1018567, 0.1282145, -0.1255784, 0.3376052, -9.514965, 0, 0, 45.41551, 1, 1
IMU2, 241934175, 0.1336981, 0.1038948, 0.1566646, -0.1239311, 0.5094146, -9.473076, 0, 0, 48.375, 1, 1
IMT, 241934185, 0.019988, 0.02, 0.002345971, 0.002038322, 0.002572907, -0.002493492, 0.006428608, -0.1906133
IMT2, 241934185, 0.019988, 0.018125, 0.002600064, 0.002030777, 0.003123994, -0.001261493, 0.008296413, -0.1715896
SONR, 241934400, 0, 0, -0.1979985, 0.17, 0, 0, 0
RFND, 241934404, 0.00, 0.00
ATT, 241953754, 7.32, -3.09, -1.97, -3.31, 0.00, 292.79, 0.09, 0.03
PIDR, 241953759, 50.36666, 39.99754, 0, 71.05363, 0, 0
PIDP, 241953764, 0.02832007, 0.02027195, 0, -26.30661, 0, 0
PIDY, 241953768, 0, 0, 0, 0, 0, 0
PIDS, 241953772, 0, 0, 0, 0, 0, 0
EKF1, 241953789, -2.37, -3.37, 291.51, 0.3404199, 0.1697793, 0.1099958, -0.3199714, -0.6848899, 0.2079866, -0.04, 0.08, -0.14
EKF2, 241953796, 51, 8, 18, 0.00, 0.00, 304, 0, 237, 0, 0, 0
EKF3, 241953832, 0.27, -0.03, 0.10, 0.34, 0.09, 0.00, 2, -3, 4, 0.00
EKF4, 241953856, 0.06, 0.02, 0.00, 0.01, 0.02, 0.02, 0.00, 0, 0, 0, 16, 9023
AHR2, 241953879, -2.37, -3.37, 291.51, 47.19, 16.5427342, -88.6821216
POS, 241953894, 16.542731, -88.6821225, 47.29, 0
IMU, 241953898, 0.08574459, 0.1035687, 0.1348999, -0.08020113, 0.3137992, -9.643894, 0, 0, 45.41551, 1, 1
IMU2, 241953898, 0.1014104, 0.105367, 0.1637807, -0.1093515, 0.4440529, -9.588178, 0, 0, 48.375, 1, 1
IMT, 241953909, 0.020032, 0.02, 0.001672317, 0.002070795, 0.002700604, -0.001408709, 0.00654783, -0.192997
IMT2, 241953909, 0.020032, 0.02, 0.001941816, 0.002061297, 0.003236502, -0.001819663, 0.009327233, -0.191948
SONR, 241955512, 0, 0, -0.1979985, 0.17, 0, 0, 0
RFND, 241955516, 0.00, 0.00
ATT, 241974095, 7.32, -3.01, -1.97, -3.18, 0.00, 292.96, 0.09, 0.03
PIDR, 241974100, 50.36666, 39.99754, 0, 71.05363, 0, 0
PIDP, 241974104, 0.02832007, 0.02027195, 0, -26.30661, 0, 0
PIDY, 241974108, 0, 0, 0, 0, 0, 0
PIDS, 241974112, 0, 0, 0, 0, 0, 0
EKF1, 241974130, -2.30, -3.25, 291.68, 0.3427204, 0.1698925, 0.1092194, -0.3191999, -0.6824331, 0.2096855, -0.04, 0.08, -0.14
EKF2, 241974137, 51, 8, 18, 0.00, 0.00, 304, 0, 237, 0, 0, 0
EKF3, 241974142, 0.27, -0.03, 0.10, 0.34, 0.09, 0.00, 2, -3, 3, 0.00
EKF4, 241974166, 0.06, 0.02, 0.00, 0.01, 0.02, 0.02, 0.00, 0, 0, 0, 16, 9023
AHR2, 241974189, -2.30, -3.25, 291.68, 47.19, 16.5427342, -88.6821215
POS, 241974209, 16.542731, -88.6821225, 47.29, 0
IMU, 241974213, 0.06172092, 0.10154, 0.1365943, 0.001333931, 0.4286407, -9.748507, 0, 0, 45.54848, 1, 1
IMU2, 241974213, 0.07421055, 0.098771, 0.1614535, -0.06838204, 0.5149208, -9.592864, 0, 0, 48.375, 1, 1
IMT, 241974223, 0.020312, 0.02, 0.001219504, 0.002017674, 0.00272554, 2.166869E-05, 0.008674711, -0.1947353
IMT2, 241974223, 0.020312, 0.016875, 0.001577942, 0.002071264, 0.003396111, -0.001749211, 0.009082226, -0.1615525
SONR, 241974408, 0, 0, -0.1979985, 0.17, 0, 0, 0
RFND, 241974413, 0.00, 0.00
ATT, 241994136, 7.32, -2.95, -1.97, -3.06, 0.00, 293.11, 0.09, 0.03
PIDR, 241994141, 50.36666, 39.99754, 0, 71.05363, 0, 0
PIDP, 241994145, 0.02832007, 0.02027195, 0, -26.30661, 0, 0
PIDY, 241994149, 0, 0, 0, 0, 0, 0
PIDS, 241994153, 0, 0, 0, 0, 0, 0
EKF1, 241994176, -2.24, -3.14, 291.85, 0.3445071, 0.1676793, 0.1104221, -0.3185734, -0.6800868, 0.2113297, -0.04, 0.08, -0.14
EKF2, 241994183, 51, 8, 18, 0.00, 0.00, 304, 0, 237, 0, 0, 0
EKF3, 241994188, 0.27, -0.03, 0.10, 0.34, 0.09, 0.00, 2, -3, 3, 0.00
EKF4, 241994212, 0.06, 0.02, 0.00, 0.01, 0.02, 0.02, 0.00, 0, 0, 0, 16, 9023
AHR2, 241994235, -2.24, -3.14, 291.85, 47.18, 16.5427342, -88.6821215
POS, 241994250, 16.542731, -88.6821225, 47.29, 0
IMU, 241994254, 0.04911037, 0.09767988, 0.1364285, 0.05659067, 0.3737921, -9.63688, 0, 0, 45.54848, 1, 1
IMU2, 241994254, 0.0624797, 0.1011322, 0.1594014, 0.06700588, 0.4530856, -9.537543, 0, 0, 48.375, 1, 1
IMT, 241994265, 0.019777, 0.02, 0.0009683337, 0.0019501, 0.002727672, 0.00122165, 0.00710101, -0.192361
IMT2, 241994265, 0.019777, 0.019375, 0.001102442, 0.001857067, 0.002944112, 0.001533238, 0.007942752, -0.1846202
SONR, 241994622, 0, 0, -0.1979985, 0.17, 0, 0, 0
RFND, 241994626, 0.00, 0.00
ATT, 242013826, 7.32, -2.93, -1.97, -2.95, 0.00, 293.27, 0.09, 0.03
PIDR, 242013831, 50.36666, 39.99754, 0, 71.05363, 0, 0
PIDP, 242013835, 0.02832007, 0.02027195, 0, -26.30661, 0, 0
PIDY, 242013839, 0, 0, 0, 0, 0, 0
PIDS, 242013844, 0, 0, 0, 0, 0, 0
EKF1, 242013891, -2.22, -3.03, 292.01, 0.3431533, 0.1639505, 0.111466, -0.3178673, -0.6777611, 0.2130206, -0.04, 0.08, -0.14
EKF2, 242013898, 51, 8, 18, 0.00, 0.00, 304, 0, 237, 0, 0, 0
EKF3, 242013903, 0.27, -0.03, 0.10, 0.34, 0.09, 0.00, 3, -3, 3, 0.00
EKF4, 242013927, 0.06, 0.02, 0.00, 0.02, 0.02, 0.02, 0.00, 0, 0, 0, 16, 9023
AHR2, 242013990, -2.22, -3.03, 292.01, 47.18, 16.5427342, -88.6821215
POS, 242014005, 16.542731, -88.6821225, 47.29, 0
IMU, 242014009, 0.02521274, 0.0910496, 0.1321437, 0.1097689, 0.1738758, -9.637797, 0, 0, 45.45983, 1, 1
IMU2, 242014009, 0.0352359, 0.09548418, 0.1585466, 0.0635789, 0.2596228, -9.48787, 0, 0, 48.125, 1, 1
IMT, 242014028, 0.019997, 0.02, 0.0004442161, 0.001810592, 0.002634616, 0.002349633, 0.00310476, -0.1930347
IMT2, 242014028, 0.019997, 0.019375, 0.0006332745, 0.001820949, 0.003087811, 0.001565027, 0.00481083, -0.1843501
MAG, 242014238, 111, 286, 233, -82, 2, -2, 0, 0, 0, 1
MAG2, 242014242, -19, 287, 273, -179, 95, -279, 0, 0, 0, 1
ARSP, 242014274, 1.902366, 1.52903, 26.75, 1.52903, 113.9366
BARO, 242014439, -0.09899923, 101834.1, 49.12, -0.3012779
RAD, 242014544, 216, 213, 88, 54, 35, 0, 0
SONR, 242014916, 0, 0, -0.09899923, 0.17, 0, 0, 0
RFND, 242014921, 0.00, 0.00
CTUN, 242014957, 7.32, -2.93, -1.97, -2.95, 0, 4414, 0.1738758
NTUN, 242014962, 293.27, 1204.5, 36.24, 36.24, 49.10, 2.25, -0.09899923, 17
RCIN, 242015040, 1516, 1489, 993, 1997, 1997, 1517, 1997, 1857, 0, 0, 0, 0, 0, 0
RCOU, 242015107, 1517, 1489, 993, 1997, 1997, 1561, 1997, 1002, 1500, 1500, 1500, 1500
VIBE, 242015170, 0.08805209, 0.1103758, 0.08937477, 0, 0, 0
ATT, 242034189, 7.32, -2.94, -1.97, -2.85, 0.00, 293.41, 0.09, 0.03
PIDR, 242034194, 50.36666, 39.99754, 0, 71.05363, 0, 0
PIDP, 242034198, 0.02832007, 0.02027195, 0, -26.30661, 0, 0
PIDY, 242034202, 0, 0, 0, 0, 0, 0
PIDS, 242034206, 0, 0, 0, 0, 0, 0
EKF1, 242034224, -2.24, -2.94, 292.17, 0.3421155, 0.1598231, 0.1124146, -0.317077, -0.6754674, 0.2129119, -0.04, 0.08, -0.14
EKF2, 242034230, 51, 8, 18, 0.00, 0.00, 304, 0, 237, 0, 0, 0
EKF3, 242034235, 0.27, -0.03, 0.10, 0.34, 0.09, 0.11, 4, -7, 6, 0.00
EKF4, 242034264, 0.06, 0.02, 0.01, 0.02, 0.04, 0.04, 0.00, 0, 0, 0, 16, 9023
AHR2, 242034287, -2.24, -2.94, 292.17, 47.18, 16.5427342, -88.6821215
POS, 242034388, 16.542731, -88.6821225, 47.39, 0
IMU, 242034392, -0.009492141, 0.08329768, 0.1239918, 0.1480651, 0.1211598, -9.618576, 0, 0, 45.45983, 1, 1
IMU2, 242034392, -0.01497984, 0.08250608, 0.1487143, 0.1193027, 0.2548801, -9.488139, 0, 0, 48.25, 1, 1
IMT, 242034402, 0.020234, 0.02, -0.0002225381, 0.001656313, 0.002464321, 0.003016822, 0.002861552, -0.1921396
IMT2, 242034402, 0.020234, 0.019375, -0.0003279518, 0.001588763, 0.002924583, 0.002523255, 0.005363795, -0.1835263
RAD, 242034554, 216, 213, 88, 54, 35, 0, 0
SONR, 242034659, 0, 0, -0.09899923, 0.17, 0, 0, 0
RFND, 242034664, 0.00, 0.00
ATT, 242054060, 7.32, -2.97, -1.97, -2.76, 0.00, 293.55, 0.09, 0.03
PIDR, 242054065, 50.36666, 39.99754, 0, 71.05363, 0, 0
PIDP, 242054069, 0.02832007, 0.02027195, 0, -26.30661, 0, 0
PIDY, 242054073, 0, 0, 0, 0, 0, 0
PIDS, 242054077, 0, 0, 0, 0, 0, 0
EKF1, 242054095, -2.26, -2.85, 292.31, 0.3478571, 0.1585283, 0.1124012, -0.3101282, -0.6722652, 0.2131894, -0.04, 0.08, -0.14
EKF2, 242054101, 51, 8, 18, 0.00, 0.00, 304, 0, 237, 0, 0, 0
EKF3, 242054106, 0.27, -0.03, 0.10, 0.34, 0.09, 0.11, 4, -7, 6, 0.00
EKF4, 242054130, 0.06, 0.02, 0.01, 0.02, 0.04, 0.04, 0.00, 0, 0, 0, 16, 9023
AHR2, 242054153, -2.26, -2.85, 292.31, 47.18, 16.5427343, -88.6821214
POS, 242054168, 16.542731, -88.6821225, 47.39, 0
IMU, 242054172, -0.02352613, 0.0748073, 0.1152908, 0.1244485, 0.281321, -9.656833, 0, 0, 45.45983, 1, 1
IMU2, 242054172, -0.02998166, 0.0742203, 0.1348164, 0.1104658, 0.4769018, -9.543861, 0, 0, 48.375, 1, 1
IMT, 242054183, 0.019969, 0.02, -0.0004438713, 0.001478726, 0.002294491, 0.002244034, 0.005832511, -0.1935623
IMT2, 242054183, 0.019969, 0.019375, -0.0005410973, 0.001502092, 0.002651201, 0.001483282, 0.009964095, -0.1848582
GPS, 242054256, 3, 232403000, 1889, 13, 0.71, 16.5427311, -88.6821226, -0.20, 47.50, 0.13, 123.77, -0.04, 1
GPA, 242054261, 1.09, 1.59, 2.66, 0.50
SONR, 242054423, 0, 0, -0.09899923, 0.13, 0, 0, 0
RFND, 242054428, 0.00, 0.00
ATT, 242075071, 7.32, -2.99, -1.97, -2.68, 0.00, 293.67, 0.09, 0.04
PIDR, 242075076, 50.36666, 39.99754, 0, 71.05363, 0, 0
PIDP, 242075080, 0.02832007, 0.02027195, 0, -26.30661, 0, 0
PIDY, 242075084, 0, 0, 0, 0, 0, 0
PIDS, 242075088, 0, 0, 0, 0, 0, 0
EKF1, 242075181, -2.29, -2.78, 292.44, 0.3470136, 0.1577467, 0.1085707, -0.3102627, -0.6706456, 0.2128467, -0.04, 0.08, -0.14
EKF2, 242075188, 54, 8, 18, 0.00, 0.00, 304, 0, 237, 0, 0, 0
EKF3, 242075193, 0.35, 0.03, 0.13, 0.34, 0.09, 0.11, 4, -7, 6, 0.00
EKF4, 242075217, 0.08, 0.02, 0.01, 0.03, 0.05, 0.04, 0.00, 0, 0, 0, 16, 9023
AHR2, 242075244, -2.29, -2.78, 292.44, 47.18, 16.5427343, -88.6821214
POS, 242075259, 16.542731, -88.6821224, 47.39, 0
IMU, 242075263, -0.01610954, 0.06176827, 0.1077473, 0.02023799, 0.2946514, -9.846807, 0, 0, 45.45983, 1, 1
IMU2, 242075263, -0.01604792, 0.06050434, 0.1245963, 0.03264891, 0.417215, -9.639053, 0, 0, 48.375, 1, 1
IMT, 242075273, 0.01998, 0.02, -0.0003119059, 0.001214793, 0.002147099, 5.046827E-05, 0.00563699, -0.1974864
IMT2, 242075273, 0.01998, 0.02, -0.0002861599, 0.001149282, 0.0024583, 6.046092E-05, 0.007984319, -0.1933029
SONR, 242075483, 0, 0, -0.09899923, 0.13, 0, 0, 0
RFND, 242075487, 0.00, 0.00
ATT, 242092484, 7.32, -3.02, -1.97, -2.63, 0.00, 293.78, 0.09, 0.04
PIDR, 242092489, 50.36666, 39.99754, 0, 71.05363, 0, 0
PIDP, 242092494, 0.02832007, 0.02027195, 0, -26.30661, 0, 0
PIDY, 242092498, 0, 0, 0, 0, 0, 0
PIDS, 242092502, 0, 0, 0, 0, 0, 0
EKF1, 242092580, -2.31, -2.73, 292.56, 0.3437015, 0.159744, 0.1004987, -0.3103962, -0.6689944, 0.212398, -0.04, 0.08, -0.14
EKF2, 242092587, 54, 8, 18, 0.00, 0.00, 304, 0, 237, 0, 0, 0
EKF3, 242092592, 0.35, 0.03, 0.13, 0.34, 0.09, 0.11, 4, -7, 6, 0.00
EKF4, 242092616, 0.08, 0.02, 0.01, 0.03, 0.05, 0.04, 0.00, 0, 0, 0, 16, 9023
AHR2, 242092640, -2.31, -2.73, 292.56, 47.18, 16.5427343, -88.6821214
POS, 242092654, 16.542731, -88.6821224, 47.39, 0
IMU, 242092658, -0.01693391, 0.04917635, 0.09704514, -0.07423533, 0.2267686, -10.03397, 0, 0, 45.45983, 1, 1
IMU2, 242092658, -0.01601273, 0.03910303, 0.1137623, -0.2444467, 0.3799635, -9.884528, 0, 0, 48.375, 1, 1
IMT, 242092669, 0.020102, 0.02, -0.0003518178, 0.0009694664, 0.001917241, -0.001696705, 0.004296959, -0.2007511
IMT2, 242092669, 0.020102, 0.019375, -0.0003560285, 0.0007408767, 0.002217219, -0.00518798, 0.007310791, -0.1924336
SONR, 242093914, 0, 0, -0.09899923, 0.13, 0, 0, 0
RFND, 242093918, 0.00, 0.00
STAT, 242093993, 0, 0, 1, 2, 0, 0
ATT, 242114304, 7.32, -3.06, -1.97, -2.60, 0.00, 293.88, 0.09, 0.04
PIDR, 242114309, 50.36666, 39.99754, 0, 71.05363, 0, 0
PIDP, 242114368, 0.02832007, 0.02027195, 0, -26.30661, 0, 0
PIDY, 242114372, 0, 0, 0, 0, 0, 0
PIDS, 242114377, 0, 0, 0, 0, 0, 0
EKF1, 242114394, -2.34, -2.70, 292.67, 0.3402398, 0.1631157, 0.09279715, -0.3106337, -0.6673059, 0.2117782, -0.04, 0.08, -0.14
EKF2, 242114401, 54, 8, 18, 0.00, 0.00, 304, 0, 237, 0, 0, 0
EKF3, 242114406, 0.35, 0.03, 0.13, 0.34, 0.09, 0.11, 5, -8, 7, 0.00
EKF4, 242114430, 0.08, 0.02, 0.01, 0.03, 0.05, 0.04, 0.00, 0, 0, 0, 16, 9023
AHR2, 242114458, -2.34, -2.70, 292.67, 47.18, 16.5427343, -88.6821214
POS, 242114473, 16.542731, -88.6821224, 47.39, 0
IMU, 242114477, -0.02098619, 0.03486402, 0.08109283, -0.1982106, 0.2099717, -10.0431, 0, 0, 45.45983, 1, 1
IMU2, 242114477, -0.01882237, 0.02060021, 0.09191682, -0.2376874, 0.3950034, -9.924145, 0, 0, 48.125, 1, 1
IMT, 242114487, 0.019972, 0.02, -0.000421531, 0.00067681, 0.001599037, -0.004163866, 0.004592624, -0.2003554
IMT2, 242114487, 0.019972, 0.019375, -0.0003872188, 0.0004781498, 0.001936452, -0.004870086, 0.007989219, -0.1920628
MAG, 242114678, 113, 286, 233, -82, 2, -2, 0, 0, 0, 1
MAG2, 242114682, -27, 297, 279, -179, 95, -279, 0, 0, 0, 1
ARSP, 242114754, 2.155951, 1.963837, 26.77, 1.963837, 113.9366
BARO, 242114794, -0.1704987, 101835, 49.12, -0.2387334
SONR, 242114857, 0, 0, -0.1704987, 0.13, 0, 0, 0
RFND, 242114861, 0.00, 0.00
CTUN, 242114959, 7.32, -3.06, -1.97, -2.60, 0, 4414, 0.2099717
NTUN, 242114964, 293.88, 1204.494, 36.24, 36.24, 49.00, 2.22, -0.1704987, 13
RCIN, 242114970, 1517, 1489, 992, 1997, 1998, 1516, 1997, 1857, 0, 0, 0, 0, 0, 0
RCOU, 242115049, 1517, 1488, 993, 1997, 1997, 1561, 1997, 1002, 1500, 1500, 1500, 1500
VIBE, 242115060, 0.1080135, 0.08195366, 0.1399419, 0, 0, 0
ATT, 242134016, 7.32, -3.09, -1.97, -2.58, 0.00, 293.95, 0.09, 0.04
PIDR, 242134021, 50.36666, 39.99754, 0, 71.05363, 0, 0
PIDP, 242134025, 0.02832007, 0.02027195, 0, -26.30661, 0, 0
PIDY, 242134029, 0, 0, 0, 0, 0, 0
PIDS, 242134034, 0, 0, 0, 0, 0, 0
EKF1, 242134063, -2.35, -2.68, 292.74, 0.3375305, 0.1682256, 0.08813654, -0.311045, -0.6655977, 0.2121828, -0.04, 0.08, -0.14
EKF2, 242134070, 54, 8, 18, 0.00, 0.00, 304, 0, 237, 0, 0, 0
EKF3, 242134075, 0.35, 0.03, 0.13, 0.34, 0.09, 0.04, 4, -9, 7, 0.00
EKF4, 242134099, 0.08, 0.02, 0.00, 0.02, 0.06, 0.04, 0.00, 0, 0, 0, 16, 9023
AHR2, 242134122, -2.35, -2.68, 292.74, 47.18, 16.5427343, -88.6821214
POS, 242134137, 16.542731, -88.6821224, 47.31, 0
IMU, 242134141, -0.01472811, 0.02294029, 0.06377949, -0.2497894, 0.2783028, -9.89255, 0, 0, 45.50415, 1, 1
IMU2, 242134141, -0.01349561, 0.008173828, 0.07688761, -0.3916326, 0.5706189, -9.812393, 0, 0, 48.375, 1, 1
IMT, 242134151, 0.01959, 0.019, -0.000239821, 0.0004206308, 0.001182458, -0.004595023, 0.005249034, -0.1878858
IMT2, 242134151, 0.01959, 0.0175, -0.0002315262, 0.0001317186, 0.001509871, -0.006950447, 0.009681405, -0.1714756
SONR, 242134310, 0, 0, -0.1704987, 0.13, 0, 0, 0
RFND, 242134369, 0.00, 0.00
ATT, 242153845, 7.32, -3.11, -1.97, -2.58, 0.00, 294.00, 0.09, 0.04
PIDR, 242153850, 50.36666, 39.99754, 0, 71.05363, 0, 0
PIDP, 242153854, 0.02832007, 0.02027195, 0, -26.30661, 0, 0
PIDY, 242153858, 0, 0, 0, 0, 0, 0
PIDS, 242153863, 0, 0, 0, 0, 0, 0
EKF1, 242153950, -2.36, -2.69, 292.80, 0.334644, 0.1729196, 0.0822337, -0.3113448, -0.6637095, 0.212525, -0.04, 0.08, -0.14
EKF2, 242153957, 54, 8, 18, 0.00, 0.00, 304, 0, 237, 0, 0, 0
EKF3, 242153962, 0.35, 0.03, 0.13, 0.34, 0.09, 0.04, 4, -9, 7, 0.00
EKF4, 242153986, 0.08, 0.02, 0.00, 0.02, 0.06, 0.05, 0.00, 0, 0, 0, 16, 9023
AHR2, 242154046, -2.36, -2.69, 292.80, 47.18, 16.5427343, -88.6821214
POS, 242154061, 16.542731, -88.6821224, 47.31, 0
IMU, 242154065, -0.003076087, 0.008100847, 0.0461271, -0.2237817, 0.2888098, -9.898829, 0, 0, 45.45983, 1, 1
IMU2, 242154065, -0.004367527, -0.01211353, 0.05533182, -0.3154089, 0.4767519, -9.823975, 0, 0, 48.375, 1, 1
IMT, 242154079, 0.020069, 0.021, -6.795115E-05, 0.0001497819, 0.0009561597, -0.004625495, 0.006215697, -0.2083543
IMT2, 242154079, 0.020069, 0.02, -8.556307E-05, -0.0002462521, 0.0009611423, -0.006479102, 0.008764975, -0.1977016
SONR, 242154376, 0, 0, -0.1704987, 0.13, 0, 0, 0
RFND, 242154380, 0.00, 0.00
ATT, 242173827, 7.32, -3.12, -1.97, -2.60, 0.00, 294.03, 0.09, 0.04
PIDR, 242173832, 50.36666, 39.99754, 0, 71.05363, 0, 0
PIDP, 242173836, 0.02832007, 0.02027195, 0, -26.30661, 0, 0
PIDY, 242173840, 0, 0, 0, 0, 0, 0
PIDS, 242173844, 0, 0, 0, 0, 0, 0
EKF1, 242173862, -2.37, -2.70, 292.84, 0.3333142, 0.1773193, 0.07414445, -0.3116956, -0.6617342, 0.2127241, -0.04, 0.08, -0.14
EKF2, 242173868, 54, 8, 18, 0.00, 0.00, 304, 0, 237, 0, 0, 0
EKF3, 242173873, 0.35, 0.03, 0.13, 0.34, 0.09, 0.04, 4, -10, 7, 0.00
EKF4, 242173897, 0.08, 0.02, 0.00, 0.03, 0.06, 0.05, 0.00, 0, 0, 0, 16, 9023
AHR2, 242173920, -2.37, -2.70, 292.84, 47.18, 16.5427342, -88.6821214
POS, 242173935, 16.542731, -88.6821224, 47.31, 0
IMU, 242173939, 0.0006150831, -0.004107133, 0.02970137, -0.2059174, 0.372723, -10.05391, 0, 0, 45.45983, 1, 1
IMU2, 242173939, -0.005950546, -0.0174221, 0.03908674, -0.2812136, 0.4585605, -9.986395, 0, 0, 48.375, 1, 1
IMT, 242173949, 0.020033, 0.02, 1.00049E-05, -9.153892E-05, 0.000572057, -0.004149466, 0.007878323, -0.2013682
IMT2, 242173949, 0.020033, 0.019375, -0.0001254817, -0.0003297072, 0.0007832656, -0.005147108, 0.009490125, -0.1929554
SONR, 242174115, 0, 0, -0.1704987, 0.13, 0, 0, 0
RFND, 242174120, 0.00, 0.00
ATT, 242193837, 7.32, -3.13, -1.97, -2.62, 0.00, 294.05, 0.09, 0.04
PIDR, 242193842, 50.36666, 39.99754, 0, 71.05363, 0, 0
PIDP, 242193846, 0.02832007, 0.02027195, 0, -26.30661, 0, 0
PIDY, 242193851, 0, 0, 0, 0, 0, 0
PIDS, 242193855, 0, 0, 0, 0, 0, 0
EKF1, 242193872, -2.36, -2.72, 292.87, 0.3339589, 0.1817221, 0.06710195, -0.3120531, -0.6596701, 0.2127711, -0.04, 0.08, -0.14
EKF2, 242193879, 54, 8, 18, 0.00, 0.00, 304, 0, 237, 0, 0, 0
EKF3, 242193884, 0.35, 0.03, 0.13, 0.34, 0.09, 0.04, 5, -10, 7, 0.00
EKF4, 242193908, 0.08, 0.02, 0.00, 0.03, 0.06, 0.05, 0.00, 0, 0, 0, 16, 9023
AHR2, 242193931, -2.36, -2.72, 292.87, 47.18, 16.5427342, -88.6821213
POS, 242193946, 16.542731, -88.6821224, 47.31, 0
IMU, 242193950, 0.007384575, -0.01372476, 0.01991056, -0.2101161, 0.4797307, -10.0565, 0, 0, 45.45983, 1, 1
IMU2, 242193950, 0.005572735, -0.01880473, 0.02576707, -0.2025556, 0.6142253, -9.944339, 0, 0, 48.375, 1, 1
IMT, 242193960, 0.020026, 0.02, 0.0001659078, -0.0002830949, 0.0003969962, -0.004259864, 0.009442487, -0.2006569
IMT2, 242193960, 0.020026, 0.018125, 0.0001598938, -0.0004390063, 0.0004569404, -0.003409558, 0.01130752, -0.1791878
SONR, 242194201, 0, 0, -0.1704987, 0.13, 0, 0, 0
RFND, 242194206, 0.00, 0.00
ATT, 242214035, 7.32, -3.11, -1.97, -2.64, 0.00, 294.06, 0.09, 0.04
PIDR, 242214040, 50.36666, 39.99754, 0, 71.05363, 0, 0
PIDP, 242214044, 0.02832007, 0.02027195, 0, -26.30661, 0, 0
PIDY, 242214048, 0, 0, 0, 0, 0, 0
PIDS, 242214052, 0, 0, 0, 0, 0, 0
EKF1, 242214070, -2.34, -2.74, 292.89, 0.3322561, 0.1866897, 0.06315048, -0.3124319, -0.6575177, 0.2127055, -0.04, 0.08, -0.14
EKF2, 242214076, 54, 8, 18, 0.00, 0.00, 304, 0, 237, 0, 0, 0
EKF3, 242214149, 0.35, 0.03, 0.13, 0.34, 0.09, 0.04, 5, -10, 7, 0.00
EKF4, 242214173, 0.08, 0.02, 0.00, 0.03, 0.06, 0.05, 0.00, 0, 0, 0, 16, 9023
AHR2, 242214196, -2.34, -2.74, 292.89, 47.18, 16.5427342, -88.6821213
POS, 242214211, 16.542731, -88.6821224, 47.31, 0
IMU, 242214215, 0.0197943, -0.01721274, 0.01638236, -0.2499679, 0.3797123, -9.863413, 0, 0, 45.45983, 1, 1
IMU2, 242214215, 0.02963874, -0.02608395, 0.01202045, -0.3125807, 0.497726, -9.770131, 0, 0, 48.25, 1, 1
IMT, 242214225, 0.019987, 0.02, 0.0004058848, -0.0003411016, 0.0003315426, -0.005027853, 0.007325143, -0.1969212
IMT2, 242214225, 0.019987, 0.019375, 0.0006075818, -0.0004944727, 0.000218993, -0.005846479, 0.009471538, -0.1891883
MAG, 242214485, 113, 284, 234, -82, 2, -2, 0, 0, 0, 1
MAG2, 242214490, -28, 295, 280, -179, 95, -279, 0, 0, 0, 1
ARSP, 242214551, 2.210384, 2.064255, 26.77, -2.064255, 113.9366
BARO, 242214586, -0.01099991, 101833.1, 49.12, -0.006937747
SONR, 242214650, 0, 0, -0.01099991, 0.13, 0, 0, 0
RFND, 242214654, 0.00, 0.00
CTUN, 242214691, 7.32, -3.11, -1.97, -2.64, 0, 4414, 0.3797123
NTUN, 242214696, 294.06, 1204.494, 36.24, 36.24, 49.08, 2.22, -0.01099991, 13
RCIN, 242214702, 1517, 1488, 993, 1997, 1997, 1517, 1997, 1857, 0, 0, 0, 0, 0, 0
RCOU, 242214770, 1516, 1489, 993, 1997, 1997, 1560, 1997, 1002, 1500, 1500, 1500, 1500
VIBE, 242214816, 0.07185473, 0.08074997, 0.1190886, 0, 0, 0
ATT, 242233981, 7.32, -3.10, -1.97, -2.67, 0.00, 294.06, 0.09, 0.04
PIDR, 242233986, 50.36666, 39.99754, 0, 71.05363, 0, 0
PIDP, 242233991, 0.02832007, 0.02027195, 0, -26.30661, 0, 0
PIDY, 242233995, 0, 0, 0, 0, 0, 0
PIDS, 242233999, 0, 0, 0, 0, 0, 0
EKF1, 242234016, -2.31, -2.77, 292.90, 0.3304599, 0.1902775, 0.05762001, -0.3128644, -0.6552766, 0.2097466, -0.04, 0.08, -0.14
EKF2, 242234031, 54, 8, 18, 0.00, 0.00, 304, 0, 237, 0, 0, 0
EKF3, 242234036, 0.35, 0.03, 0.13, 0.34, 0.09, 0.20, 5, -8, 6, 0.00
EKF4, 242234060, 0.08, 0.02, 0.01, 0.03, 0.05, 0.04, 0.00, 0, 0, 0, 16, 9023
AHR2, 242234144, -2.31, -2.77, 292.90, 47.19, 16.5427342, -88.6821213
POS, 242234159, 16.542731, -88.6821224, 47.47, 0
IMU, 242234163, 0.02163235, -0.01840453, 0.01409904, -0.2054066, 0.3309751, -9.849161, 0, 0, 45.37119, 1, 1
IMU2, 242234163, 0.0289784, -0.02543889, 0.006146752, -0.2650395, 0.4292704, -9.718786, 0, 0, 48.5, 1, 1
IMT, 242234174, 0.020031, 0.02, 0.0004223762, -0.0003591967, 0.0002804621, -0.00388547, 0.006738581, -0.1973027
IMT2, 242234174, 0.020031, 0.02, 0.0004553907, -0.0004375685, 0.0001525236, -0.004707971, 0.00883003, -0.1951887
GPS, 242234279, 3, 232403200, 1889, 13, 0.71, 16.5427313, -88.6821226, -0.18, 47.42, 0.18, 123.77, 0.09, 1
GPA, 242234284, 1.09, 1.59, 2.66, 0.36
SONR, 242234581, 0, 0, -0.01099991, 0.18, 0, 0, 0
RFND, 242234586, 0.00, 0.00
ATT, 242254811, 7.32, -3.09, -1.97, -2.69, 0.00, 294.07, 0.10, 0.04
PIDR, 242254853, 50.36666, 39.99754, 0, 71.05363, 0, 0
PIDP, 242254857, 0.02832007, 0.02027195, 0, -26.30661, 0, 0
PIDY, 242254861, 0, 0, 0, 0, 0, 0
PIDS, 242254866, 0, 0, 0, 0, 0, 0
EKF1, 242254883, -2.30, -2.78, 292.92, 0.3306204, 0.1899837, 0.05225347, -0.3119667, -0.6549225, 0.2071447, -0.04, 0.08, -0.14
EKF2, 242254890, 59, 8, 18, 0.00, 0.00, 304, 0, 237, 0, 0, 0
EKF3, 242254895, 0.19, 0.26, 0.02, 0.32, 0.11, 0.20, 5, -8, 6, 0.00
EKF4, 242254993, 0.07, 0.02, 0.01, 0.03, 0.05, 0.04, 0.00, 0, 0, 0, 16, 9023
AHR2, 242255015, -2.30, -2.78, 292.92, 47.19, 16.5427342, -88.6821213
POS, 242255038, 16.5427312, -88.6821224, 47.47, 0
IMU, 242255042, 0.0177824, -0.01038135, 0.015191, -0.1297621, 0.320969, -9.871984, 0, 0, 45.45983, 1, 1
IMU2, 242255042, 0.01942823, -0.01558651, 0.01171029, -0.107344, 0.4579395, -9.807019, 0, 0, 48.375, 1, 1
IMT, 242255053, 0.020253, 0.02, 0.0003409603, -0.0001915872, 0.000315049, -0.002416693, 0.00642861, -0.1975336
IMT2, 242255053, 0.020253, 0.01875, 0.0004050059, -0.0002943464, 0.0002592164, -0.001639801, 0.008723663, -0.1834626
SONR, 242255213, 0, 0, -0.01099991, 0.18, 0, 0, 0
RFND, 242255217, 0.00, 0.00
ATT, 242273828, 7.32, -3.07, -1.97, -2.72, 0.00, 294.09, 0.10, 0.04
PIDR, 242273833, 50.36666, 39.99754, 0, 71.05363, 0, 0
PIDP, 242273837, 0.02832007, 0.02027195, 0, -26.30661, 0, 0
PIDY, 242273841, 0, 0, 0, 0, 0, 0
PIDS, 242273845, 0, 0, 0, 0, 0, 0
EKF1, 242273863, -2.29, -2.79, 292.95, 0.3312817, 0.1884738, 0.04756061, -0.3112487, -0.6546946, 0.2044119, -0.04, 0.08, -0.14
EKF2, 242273869, 59, 8, 18, 0.00, 0.00, 304, 0, 237, 0, 0, 0
EKF3, 242273874, 0.19, 0.26, 0.02, 0.32, 0.11, 0.20, 5, -8, 6, 0.00
EKF4, 242273898, 0.07, 0.02, 0.01, 0.03, 0.05, 0.04, 0.00, 0, 0, 0, 16, 9023
AHR2, 242273921, -2.29, -2.79, 292.95, 47.19, 16.5427343, -88.6821213
POS, 242273936, 16.5427312, -88.6821224, 47.47, 0
IMU, 242273940, 0.01203912, -0.00128153, 0.02011729, -0.06400141, 0.3297242, -9.886583, 0, 0, 45.50415, 1, 1
IMU2, 242273940, 0.01197253, -0.003246167, 0.02269305, 0.02827821, 0.4617251, -9.734265, 0, 0, 48.25, 1, 1
IMT, 242273951, 0.019683, 0.019, 0.0002183133, 2.900588E-06, 0.0003986694, -0.001364673, 0.006460309, -0.1875137
IMT2, 242273951, 0.019683, 0.019375, 0.0002129115, -5.403088E-05, 0.0004914925, 0.0001799111, 0.008704823, -0.1882958
SONR, 242274092, 0, 0, -0.01099991, 0.18, 0, 0, 0
RFND, 242274096, 0.00, 0.00
ATT, 242292212, 7.32, -3.05, -1.97, -2.75, 0.00, 294.11, 0.10, 0.04
PIDR, 242292217, 50.36666, 39.99754, 0, 71.05363, 0, 0
PIDP, 242292221, 0.02832007, 0.02027195, 0, -26.30661, 0, 0
PIDY, 242292225, 0, 0, 0, 0, 0, 0
PIDS, 242292229, 0, 0, 0, 0, 0, 0
EKF1, 242292247, -2.27, -2.78, 292.98, 0.3336336, 0.1861239, 0.04507646, -0.3104024, -0.654449, 0.2016225, -0.04, 0.08, -0.14
EKF2, 242292253, 59, 8, 18, 0.00, 0.00, 304, 0, 237, 0, 0, 0
EKF3, 242292258, 0.19, 0.26, 0.02, 0.32, 0.11, 0.20, 5, -8, 6, 0.00
EKF4, 242292318, 0.07, 0.02, 0.01, 0.03, 0.05, 0.04, 0.00, 0, 0, 0, 16, 9023
AHR2, 242292341, -2.27, -2.78, 292.98, 47.19, 16.5427343, -88.6821213
POS, 242292399, 16.5427312, -88.6821224, 47.47, 0
IMU, 242292403, 0.009980722, 0.01361636, 0.02700942, -0.0145085, 0.3840899, -9.730318, 0, 0, 45.54848, 1, 1
IMU2, 242292403, 0.01324119, 0.002249592, 0.03243072, 0.06357874, 0.5228148, -9.651529, 0, 0, 48.25, 1, 1
IMT, 242292413, 0.019978, 0.021, 0.0002167046, 0.0002955593, 0.0005741111, -7.996632E-05, 0.007832319, -0.2041239
IMT2, 242292413, 0.019978, 0.018125, 0.0002948662, 3.682523E-05, 0.0005895642, 0.001822093, 0.009806613, -0.1749676
SONR, 242292533, 0, 0, -0.01099991, 0.18, 0, 0, 0
RFND, 242292538, 0.00, 0.00
STAT, 242292576, 0, 0, 1, 2, 0, 0
ATT, 242314104, 7.32, -3.04, -1.97, -2.76, 0.00, 294.15, 0.10, 0.04
PIDR, 242314110, 50.36666, 39.99754, 0, 71.05363, 0, 0
PIDP, 242314114, 0.02832007, 0.02027195, 0, -26.30661, 0, 0
PIDY, 242314118, 0, 0, 0, 0, 0, 0
PIDS, 242314122, 0, 0, 0, 0, 0, 0
EKF1, 242314140, -2.27, -2.76, 293.03, 0.3354777, 0.1828276, 0.04597003, -0.3094046, -0.6541969, 0.1988322, -0.04, 0.08, -0.14
EKF2, 242314146, 59, 8, 18, 0.00, 0.00, 304, 0, 237, 0, 0, 0
EKF3, 242314151, 0.19, 0.26, 0.02, 0.32, 0.11, 0.20, 5, -8, 6, 0.00
EKF4, 242314206, 0.07, 0.02, 0.01, 0.03, 0.05, 0.04, 0.00, 0, 0, 0, 16, 9023
AHR2, 242314228, -2.27, -2.76, 293.03, 47.2, 16.5427343, -88.6821213
POS, 242314243, 16.5427312, -88.6821224, 47.47, 0
IMU, 242314247, 0.006280491, 0.0226623, 0.03668907, 0.05197254, 0.3057204, -9.586214, 0, 0, 45.45983, 1, 1
IMU2, 242314247, 0.008333981, 0.01892557, 0.0371559, 0.1143768, 0.5252782, -9.507727, 0, 0, 48.375, 1, 1
IMT, 242314258, 0.020303, 0.02, 0.0001137457, 0.0004597065, 0.0007439372, 0.001053653, 0.005813435, -0.1914659
IMT2, 242314258, 0.020303, 0.02, 0.0001432278, 0.0003954259, 0.0007886515, 0.002049579, 0.01059116, -0.189252
MAG, 242314499, 114, 286, 234, -82, 2, -2, 0, 0, 0, 1
MAG2, 242314503, -16, 287, 271, -179, 95, -279, 0, 0, 0, 1
ARSP, 242314536, 3.066603, 3.973221, 26.74, -3.973221, 113.9366
BARO, 242314571, -0.1594988, 101834.9, 49.12, 0.1924985
SONR, 242314722, 0, 0, -0.1594988, 0.18, 0, 0, 0
RFND, 242314726, 0.00, 0.00
CTUN, 242314763, 7.32, -3.04, -1.97, -2.76, 0, 4414, 0.3057204
NTUN, 242314768, 294.15, 1204.476, 36.24, 36.24, 48.92, 2.47, -0.1594988, 18
RCIN, 242314778, 1516, 1489, 993, 1997, 1997, 1516, 1998, 1857, 0, 0, 0, 0, 0, 0
RCOU, 242314912, 1517, 1488, 993, 1997, 1997, 1561, 1997, 1002, 1500, 1500, 1500, 1500
VIBE, 242314927, 0.08168568, 0.06144862, 0.1289614, 0, 0, 0
ATT, 242334100, 7.32, -3.04, -1.97, -2.77, 0.00, 294.19, 0.10, 0.04
PIDR, 242334105, 50.36666, 39.99754, 0, 71.05363, 0, 0
PIDP, 242334114, 0.02832007, 0.02027195, 0, -26.30661, 0, 0
PIDY, 242334118, 0, 0, 0, 0, 0, 0
PIDS, 242334122, 0, 0, 0, 0, 0, 0
EKF1, 242334140, -2.28, -2.74, 293.08, 0.3371063, 0.1798195, 0.04952721, -0.3084846, -0.6540852, 0.1988049, -0.04, 0.08, -0.14
EKF2, 242334147, 59, 8, 18, 0.00, 0.00, 304, 0, 237, 0, 0, 0
EKF3, 242334152, 0.19, 0.26, 0.02, 0.32, 0.11, 0.04, 4, -9, 6, 0.00
EKF4, 242334175, 0.07, 0.02, 0.00, 0.03, 0.06, 0.04, 0.00, 0, 0, 0, 16, 9023
AHR2, 242334239, -2.28, -2.74, 293.08, 47.2, 16.5427343, -88.6821213
POS, 242334254, 16.5427312, -88.6821224, 47.33, 0
IMU, 242334258, -0.005734282, 0.02874906, 0.04574131, 0.05655524, 0.2837515, -9.543938, 0, 0, 45.37119, 1, 1
IMU2, 242334258, -0.003389094, 0.01710423, 0.04939453, 0.06463226, 0.5173837, -9.326447, 0, 0, 48.375, 1, 1
IMT, 242334269, 0.019877, 0.02, -0.0001368621, 0.0005725136, 0.0009259187, 0.001082452, 0.005970805, -0.1909054
IMT2, 242334269, 0.019877, 0.019375, -0.0001088674, 0.0002777716, 0.0009555145, 0.00137429, 0.01000592, -0.1808715
SONR, 242334540, 0, 0, -0.1594988, 0.18, 0, 0, 0
RFND, 242334545, 0.00, 0.00
ATT, 242353782, 7.32, -3.05, -1.97, -2.78, 0.00, 294.25, 0.10, 0.04
PIDR, 242353787, 50.36666, 39.99754, 0, 71.05363, 0, 0
PIDP, 242353791, 0.02832007, 0.02027195, 0, -26.30661, 0, 0
PIDY, 242353796, 0, 0, 0, 0, 0, 0
PIDS, 242353800, 0, 0, 0, 0, 0, 0
EKF1, 242353817, -2.30, -2.71, 293.15, 0.3398587, 0.1768683, 0.05383165, -0.3075173, -0.6540306, 0.1988559, -0.04, 0.08, -0.14
EKF2, 242353824, 59, 8, 18, 0.00, 0.00, 304, 0, 237, 0, 0, 0
EKF3, 242353829, 0.19, 0.26, 0.02, 0.32, 0.11, 0.04, 4, -9, 6, 0.00
EKF4, 242353853, 0.07, 0.02, 0.00, 0.03, 0.06, 0.04, 0.00, 0, 0, 0, 16, 9023
AHR2, 242353876, -2.30, -2.71, 293.15, 47.2, 16.5427343, -88.6821213
POS, 242353891, 16.5427312, -88.6821224, 47.33, 0
IMU, 242353895, -0.01344996, 0.03190395, 0.05605135, 0.09420935, 0.3773813, -9.477644, 0, 0, 45.54848, 1, 1
IMU2, 242353895, -0.01408089, 0.01320659, 0.05906966, 0.03136439, 0.5135062, -9.331672, 0, 0, 48.375, 1, 1
IMT, 242353942, 0.019882, 0.02, -0.0002682993, 0.0006438221, 0.001132373, 0.002061637, 0.00789263, -0.1895533
IMT2, 242353942, 0.019882, 0.019375, -0.0002757323, 0.0002683024, 0.001153008, 0.001119973, 0.009903688, -0.180963
SONR, 242354106, 0, 0, -0.1594988, 0.18, 0, 0, 0
RFND, 242354110, 0.00, 0.00
ATT, 242373757, 7.32, -3.06, -1.97, -2.78, 0.00, 294.32, 0.10, 0.04
PIDR, 242373762, 50.36666, 39.99754, 0, 71.05363, 0, 0
PIDP, 242373766, 0.02832007, 0.02027195, 0, -26.30661, 0, 0
PIDY, 242373771, 0, 0, 0, 0, 0, 0
PIDS, 242373775, 0, 0, 0, 0, 0, 0
EKF1, 242373792, -2.32, -2.69, 293.23, 0.3441819, 0.1739224, 0.0578745, -0.3064318, -0.65401, 0.1989974, -0.04, 0.08, -0.14
EKF2, 242373868, 59, 8, 18, 0.00, 0.00, 304, 0, 237, 0, 0, 0
EKF3, 242373902, 0.19, 0.26, 0.02, 0.32, 0.11, 0.04, 5, -9, 6, 0.00
EKF4, 242373926, 0.07, 0.02, 0.00, 0.03, 0.06, 0.04, 0.00, 0, 0, 0, 16, 9023
AHR2, 242373949, -2.32, -2.69, 293.23, 47.2, 16.5427343, -88.6821213
POS, 242373964, 16.5427312, -88.6821224, 47.33, 0
IMU, 242373969, -0.01511989, 0.03547741, 0.06781138, 0.09773241, 0.4467552, -9.497965, 0, 0, 45.37119, 1, 1
IMU2, 242373969, -0.01786651, 0.01456586, 0.07266248, 0.1795624, 0.6318763, -9.328316, 0, 0, 48.375, 1, 1
IMT, 242373979, 0.020013, 0.02, -0.0002943668, 0.0007092883, 0.001371282, 0.00184084, 0.008770088, -0.1899067
IMT2, 242373979, 0.020013, 0.019375, -0.0003586297, 0.000299622, 0.001451184, 0.003195377, 0.01235253, -0.1810271
SONR, 242374106, 0, 0, -0.1594988, 0.18, 0, 0, 0
RFND, 242374111, 0.00, 0.00
ATT, 242393764, 7.32, -3.07, -1.97, -2.79, 0.00, 294.41, 0.10, 0.05
PIDR, 242393769, 50.36666, 39.99754, 0, 71.05363, 0, 0
PIDP, 242393773, 0.02832007, 0.02027195, 0, -26.30661, 0, 0
PIDY, 242393777, 0, 0, 0, 0, 0, 0
PIDS, 242393781, 0, 0, 0, 0, 0, 0
EKF1, 242393799, -2.34, -2.66, 293.32, 0.3465264, 0.1716822, 0.06041608, -0.3052967, -0.6540498, 0.1992013, -0.04, 0.08, -0.14
EKF2, 242393806, 59, 8, 18, 0.00, 0.00, 304, 0, 237, 0, 0, 0
EKF3, 242393811, 0.19, 0.26, 0.02, 0.32, 0.11, 0.04, 5, -9, 6, 0.00
EKF4, 242393835, 0.07, 0.02, 0.00, 0.03, 0.06, 0.04, 0.00, 0, 0, 0, 16, 9023
AHR2, 242393894, -2.34, -2.66, 293.32, 47.2, 16.5427343, -88.6821213
POS, 242393909, 16.5427312, -88.6821224, 47.33, 0
IMU, 242393913, -0.01357479, 0.03362483, 0.07916448, 0.05965128, 0.4233156, -9.565542, 0, 0, 45.45983, 1, 1
IMU2, 242393913, -0.01254625, 0.01760888, 0.08473087, 0.03342851, 0.5445399, -9.378302, 0, 0, 48.375, 1, 1
IMT, 242393923, 0.019954, 0.02, -0.0002672139, 0.0006566036, 0.001591049, 0.001173651, 0.008188294, -0.191645
IMT2, 242393923, 0.019954, 0.019375, -0.0002029187, 0.0002898673, 0.001576015, 0.000865657, 0.009592355, -0.1822217
SONR, 242394077, 0, 0, -0.1594988, 0.18, 0, 0, 0
RFND, 242394082, 0.00, 0.00
ATT, 242413970, 7.32, -3.08, -1.97, -2.80, 0.00, 294.50, 0.10, 0.05
PIDR, 242413975, 50.36666, 39.99754, 0, 71.05363, 0, 0
PIDP, 242413979, 0.02832007, 0.02027195, 0, -26.30661, 0, 0
PIDY, 242413984, 0, 0, 0, 0, 0, 0
PIDS, 242413987, 0, 0, 0, 0, 0, 0
EKF1, 242414005, -2.36, -2.64, 293.42, 0.345506, 0.1698035, 0.05982101, -0.3040435, -0.6540785, 0.1994422, -0.04, 0.08, -0.14
EKF2, 242414011, 59, 8, 18, 0.00, 0.00, 304, 0, 237, 0, 0, 0
EKF3, 242414016, 0.19, 0.26, 0.02, 0.32, 0.11, 0.04, 5, -10, 7, 0.00
EKF4, 242414050, 0.07, 0.02, 0.00, 0.03, 0.06, 0.04, 0.00, 0, 0, 0, 16, 9023
AHR2, 242414073, -2.36, -2.64, 293.42, 47.2, 16.5427343, -88.6821213
POS, 242414130, 16.5427312, -88.6821224, 47.33, 0
IMU, 242414135, -0.01631254, 0.02679124, 0.08537576, 0.005159057, 0.2759349, -9.699583, 0, 0, 45.45983, 1, 1
IMU2, 242414135, -0.01300224, 0.01830282, 0.09254194, -0.05616632, 0.3449908, -9.568984, 0, 0, 48.375, 1, 1
IMT, 242414145, 0.020245, 0.02, -0.0003443678, 0.0005240767, 0.001704931, -7.130884E-06, 0.005193492, -0.1942925
IMT2, 242414145, 0.020245, 0.02, -0.0002669532, 0.0003591208, 0.001839414, -0.001351903, 0.007120019, -0.192305
MAG, 242414497, 116, 285, 233, -82, 2, -2, 0, 0, 0, 1
MAG2, 242414501, -20, 286, 267, -179, 95, -279, 0, 0, 0, 1
ARSP, 242414533, 1.933045, 1.578743, 26.74, 1.578743, 113.9366
BARO, 242414566, -0.04399966, 101833.5, 49.11, 0.2182796
SONR, 242414629, 0, 0, -0.04399966, 0.18, 0, 0, 0
RFND, 242414634, 0.00, 0.00
CTUN, 242414709, 7.32, -3.08, -1.97, -2.80, 0, 4424, 0.2759349
NTUN, 242414714, 294.50, 1204.476, 36.24, 36.24, 49.06, 2.31, -0.04399966, 18
RCIN, 242414720, 1517, 1489, 992, 1998, 1997, 1516, 1997, 1857, 0, 0, 0, 0, 0, 0
RCOU, 242414788, 1517, 1488, 993, 1997, 1997, 1561, 1997, 1002, 1500, 1500, 1500, 1500
VIBE, 242414802, 0.06173153, 0.07575917, 0.1178814, 0, 0, 0
ATT, 242434085, 7.32, -3.11, -1.97, -2.82, 0.00, 294.60, 0.10, 0.05
PIDR, 242434090, 50.36666, 39.99754, 0, 71.05363, 0, 0
PIDP, 242434094, 0.02832007, 0.02027195, 0, -26.30661, 0, 0
PIDY, 242434099, 0, 0, 0, 0, 0, 0
PIDS, 242434103, 0, 0, 0, 0, 0, 0
EKF1, 242434124, -2.40, -2.62, 293.53, 0.3438352, 0.1674703, 0.05746629, -0.3029781, -0.6542345, 0.1977307, -0.04, 0.08, -0.14
EKF2, 242434131, 59, 8, 18, 0.00, 0.00, 304, 0, 237, 0, 0, 0
EKF3, 242434136, 0.19, 0.26, 0.02, 0.32, 0.11, 0.15, 4, -9, 8, 0.00
EKF4, 242434160, 0.07, 0.02, 0.01, 0.02, 0.06, 0.05, 0.00, 0, 0, 0, 16, 9023
AHR2, 242434184, -2.40, -2.62, 293.53, 47.2, 16.5427343, -88.6821213
POS, 242434439, 16.5427312, -88.6821224, 47.44, 0
IMU, 242434443, -0.03190804, 0.01923787, 0.08858714, -0.03976875, 0.1853765, -9.806172, 0, 0, 45.45983, 1, 1
IMU2, 242434443, -0.02424645, 0.005813812, 0.1011217, -0.03498313, 0.3578262, -9.614182, 0, 0, 48.25, 1, 1
IMT, 242434453, 0.01979, 0.02, -0.0006758713, 0.0003734484, 0.001777841, -0.0007559193, 0.003862998, -0.1960638
IMT2, 242434453, 0.01979, 0.01875, -0.0005394345, 8.736623E-05, 0.002005796, 0.0002539476, 0.007287811, -0.1794209
SONR, 242434634, 0, 0, -0.04399966, 0.18, 0, 0, 0
RFND, 242434639, 0.00, 0.00
ATT, 242453759, 7.32, -3.16, -1.97, -2.84, 0.00, 294.71, 0.10, 0.05
PIDR, 242453764, 50.36666, 39.99754, 0, 71.05363, 0, 0
PIDP, 242453768, 0.02832007, 0.02027195, 0, -26.30661, 0, 0
PIDY, 242453801, 0, 0, 0, 0, 0, 0
PIDS, 242453805, 0, 0, 0, 0, 0, 0
EKF1, 242453823, -2.45, -2.61, 293.65, 0.3498775, 0.1689651, 0.05472356, -0.2959632, -0.6508459, 0.196109, -0.04, 0.08, -0.14
EKF2, 242453830, 59, 8, 18, 0.00, 0.00, 304, 0, 237, 0, 0, 0
EKF3, 242453835, 0.19, 0.26, 0.02, 0.32, 0.11, 0.15, 4, -10, 8, 0.00
EKF4, 242453859, 0.07, 0.02, 0.01, 0.02, 0.06, 0.05, 0.00, 0, 0, 0, 16, 9023
AHR2, 242453882, -2.45, -2.61, 293.65, 47.2, 16.5427344, -88.6821212
POS, 242453897, 16.5427312, -88.6821224, 47.44, 0
IMU, 242453901, -0.04657901, 0.01356293, 0.09364548, -0.008806661, 0.3962038, -9.782671, 0, 0, 45.45983, 1, 1
IMU2, 242453901, -0.04327047, 0.009196367, 0.1042944, 0.05067737, 0.5716458, -9.665224, 0, 0, 48.125, 1, 1
IMT, 242453912, 0.019986, 0.02, -0.0009116234, 0.000274034, 0.001881574, 6.006805E-05, 0.008598411, -0.195409
IMT2, 242453912, 0.019986, 0.018125, -0.0008376316, 0.0001815372, 0.002027488, 0.0007957445, 0.01127035, -0.1753796
GPS, 242453972, 3, 232403400, 1889, 13, 0.71, 16.5427314, -88.6821228, -0.16, 47.43, 0.03, 123.77, 0.07, 1
GPA, 242453977, 1.09, 1.59, 2.65, 0.42
SONR, 242454598, 0, 0, -0.04399966, 0.03, 0, 0, 0
RFND, 242454602, 0.00, 0.00
ATT, 242475099, 7.32, -3.19, -1.97, -2.86, 0.00, 294.83, 0.09, 0.05
PIDR, 242475104, 50.36666, 39.99754, 0, 71.05363, 0, 0
PIDP, 242475108, 0.02832007, 0.02027195, 0, -26.30661, 0, 0
PIDY, 242475112, 0, 0, 0, 0, 0, 0
PIDS, 242475116, 0, 0, 0, 0, 0, 0
EKF1, 242475134, -2.48, -2.60, 293.78, 0.3544574, 0.1680041, 0.05102758, -0.2957849, -0.6509838, 0.1944807, -0.04, 0.08, -0.14
EKF2, 242475194, 58, 8, 18, 0.00, 0.00, 304, 0, 237, 0, 0, 0
EKF3, 242475199, 0.33, 0.16, -0.01, 0.31, 0.15, 0.15, 4, -10, 8, 0.00
EKF4, 242475223, 0.08, 0.02, 0.01, 0.03, 0.06, 0.05, 0.00, 0, 0, 0, 16, 9023
